     2.11           OBSERVATION DATA    G (GPS)             RINEX VERSION / TYPE
teqc  2009Apr15     UNAVCO Archive Ops  20090512 03:01:36UTCPGM / RUN BY / DATE
Solaris 5.10|UltraSparc IIIi|cc -xarch=v9 SC5.8|=+|*Sparc   COMMENT
BIT 2 OF LLI FLAGS DATA COLLECTED UNDER A/S CONDITION       COMMENT
NAS0                                                        MARKER NAME
43607S001                                                   MARKER NUMBER
John Braun          UCAR                                    OBSERVER / AGENCY
4632120726          TRIMBLE NETRS       1.2-0               REC # / TYPE / VERS
60154383            TRM41249.00     NONE                    ANT # / TYPE
  1255071.5459 -5643665.1731  2684343.0011                  APPROX POSITION XYZ
        0.0000        0.0000        0.0000                  ANTENNA: DELTA H/E/N
     1     1                                                WAVELENGTH FACT L1/2
     7    L1    L2    C1    P2    P1    S1    S2            # / TYPES OF OBSERV
    30.0000                                                 INTERVAL
RINEX file created by UNAVCO GPS Archive.                   COMMENT
For more information contact archive@unavco.org             COMMENT
Monument ID: 21433                                          COMMENT
UNAVCO 4-char name:   NAS0                                  COMMENT
4-char name from Log or data file: NAS0                     COMMENT
Monument location: 25.052559 -77.462256 -16.476             COMMENT
Visit ID: 96114                                             COMMENT
End of DB comments                                          COMMENT
 SNR is mapped to RINEX snr flag value [0-9]                COMMENT
  L1 & L2: min(max(int(snr_dBHz/6), 0), 9)                  COMMENT
  2009     5    11     0     0    0.0000000     GPS         TIME OF FIRST OBS
                                                            END OF HEADER
 09  5 11  0  0  0.0000000  0 11G25G31G 6G 7G19G32G23G16G 3G20G13
 122856315.17246  95732165.51744  23378774.2004   23378765.5994
        41.400          24.700
 126364938.76446  98466154.11644  24046445.3564   24046437.4004
        40.500          24.500
 108695662.75748  84697932.49446  20684081.8054   20684073.1464
        51.500          40.300
 130702891.02246 101846365.76243  24871930.4394   24871923.9484
        40.200          22.000
 114595286.96047  89295040.72445  21806737.1224   21806728.1704
        46.000          33.800
 124902049.38647  97326227.75643  23768075.4234   23768070.2224
        42.600          22.300
 106974234.56048  83356519.58746  20356513.3424   20356502.5144
        50.400          38.800
 114052692.34547  88872180.85745  21703487.5344   21703478.8754
        47.900          33.900
 106250410.36748  82792550.61446  20218759.8944   20218751.7044
        50.300          38.200
 124840508.12647  97278286.41144  23756365.4284   23756358.4104
        45.300          25.900
 117848995.39747  91830360.63845  22425916.4944   22425908.0694
        47.000          31.000
 09  5 11  0  0 30.0000000  0 11G25G31G 6G 7G19G32G23G16G 3G20G13
 122792500.59447  95682439.92544  23366629.6074   23366622.7644
        42.300          27.000
 126415367.21546  98505448.98543  24056040.2974   24056033.1034
        38.200          22.600
 108692291.51348  84695305.56746  20683439.8274   20683431.8724
        50.700          40.400
 130631249.94346 101790541.50243  24858298.8564   24858290.7834
        40.400          21.300
 114506075.24447  89225525.15845  21789760.0394   21789751.3224
        45.000          33.500
 124977244.03347  97384820.86143  23782384.7184   23782380.3384
        43.400          22.300
 106940030.58848  83329867.15246  20350005.2344   20349993.8794
        51.300          38.800
 114119682.16348  88924380.71145  21716235.7894   21716226.2514
        48.000          33.700
 106208235.07848  82759686.77546  20210734.1454   20210726.0144
        50.700          38.200
 124906478.77547  97329691.99644  23768917.8114   23768912.5514
        44.300          27.500
 117760739.76547  91761590.04945  22409120.4874   22409112.7074
        44.900          30.600
 09  5 11  0  1  0.0000000  0 11G25G31G 6G 7G19G32G23G16G 3G20G13
 122728629.86946  95632670.62644  23354474.7884   23354469.1184
        41.000          26.600
 126465940.89846  98544857.05844  24065664.8344   24065656.5854
        40.400          25.200
 108689477.95448  84693113.19946  20682904.6684   20682896.4194
        49.600          40.100
 130559510.31046 101734640.47643  24844646.3844   24844639.0734
        39.100          20.400
 114417173.04247  89156250.74645  21772842.8174   21772833.3964
        43.700          33.000
 125052404.75947  97443387.64243  23796687.2814   23796682.1974
        42.800          21.700
 106906391.29448  83303654.73346  20343603.7684   20343592.5304
        50.300          38.900
 114186777.32947  88976662.65245  21729002.5044   21728993.6694
        45.900          33.500
 106166627.65748  82727265.43046  20202815.9844   20202808.1454
        50.000          38.400
 124972519.92147  97381152.56944  23781485.3504   23781479.5044
        43.500          27.100
 117672789.65747  91693057.50845  22392384.3414   22392376.8544
        45.200          30.400
 09  5 11  0  1 30.0000000  0 11G25G31G 6G 7G19G32G23G16G 3G20G13
 122664703.03446  95582857.53244  23342310.0274   23342303.0684
        40.600          25.300
 126516660.19446  98584378.60644  24075316.4874   24075308.4734
        40.600          25.900
 108687221.90448  84691355.25146  20682475.1844   20682467.3454
        48.900          40.200
 130487671.61546 101678662.25743  24830976.2584   24830968.7124
        39.400          22.600
 114328582.81747  89087219.43645  21755984.9454   21755975.0554
        45.400          32.700
 125127528.28246  97501925.34643  23810982.2824   23810978.7224
        41.700          20.400
 106873317.79048  83277883.19146  20337309.8904   20337298.8274
        49.600          39.200
 114253975.46048  89029024.82945  21741790.7834   21741781.3034
        48.000          33.400
 106125589.27648  82695287.49846  20195006.9394   20194998.5144
        50.000          38.000
 125038628.28647  97432665.48344  23794065.6954   23794059.5564
        44.600          27.200
 117585147.35847  91624764.83244  22375707.4544   22375698.0924
        46.100          29.700
 09  5 11  0  2  0.0000000  0 11G25G31G 6G 7G19G32G23G16G 3G20G13
 122600721.05346  95533001.49744  23330135.9384   23330127.3964
        41.400          24.900
 126567526.39146  98624014.60244  24084995.6034   24084987.9404
        39.400          26.900
 108685523.46548  84690031.80746  20682152.2644   20682144.7774
        48.000          40.500
 130415734.38646 101622607.24543  24817286.6694   24817280.1194
        39.200          21.500
 114240307.84047  89018433.78745  21739186.9384   21739177.2824
        45.100          32.800
 125202612.37347  97560432.36343  23825271.5784   23825265.3214
        43.500          19.900
 106840812.08948  83252554.08346  20331124.5054   20331113.3254
        50.200          39.000
 114321274.80547  89081465.86545  21754597.5264   21754587.8124
        47.900          33.300
 106085121.32448  82663754.05746  20187306.4694   20187298.1614
        50.200          38.500
 125104801.04847  97484228.60544  23806658.1744   23806651.8014
        45.200          27.300
 117497816.07047  91556714.47345  22359087.6044   22359079.7074
        44.700          30.400
 09  5 11  0  2 30.0000000  0 11G25G31G 6G 7G19G32G23G16G 3G20G13
 122536685.23946  95483103.51743  23317949.3994   23317942.3224
        40.100          23.900
 126618540.42346  98663765.77343  24094703.1854   24094696.1094
        40.300          22.800
 108684383.73348  84689143.71746  20681934.6604   20681927.7014
        48.900          40.000
 130343699.14846 101566475.85543  24803580.2844   24803571.8014
        38.300          19.300
 114152351.69147  88949896.57845  21722448.9924   21722439.2194
        44.500          32.300
 125277654.96447  97618907.05743  23839550.9084   23839546.4694
        42.200          22.200
 106808876.45048  83227669.18046  20325047.1154   20325035.2914
        50.400          38.600
 114388674.10948  89133984.79445  21767422.2864   21767413.6274
        48.000          33.000
 106045226.68848  82632667.34646  20179714.5664   20179706.5514
        50.800          37.700
 125171036.36747  97535840.45944  23819262.8694   23819256.0854
        44.100          26.700
 117410799.42147  91488909.34245  22342529.2114   22342521.4314
        45.100          31.200
 09  5 11  0  3  0.0000000  0 11G25G31G 6G 7G19G32G23G16G 3G20G13
 122472596.73446  95433164.47544  23305753.8904   23305746.6384
        40.100          25.300
 126669703.81046  98703633.34543  24104440.3244   24104431.8994
        40.600          23.900
 108683803.08248  84688691.27946  20681824.0064   20681816.1094
        49.800          39.800
 130271566.91946 101510268.85943  24789853.8124   24789845.7974
        40.800          22.500
 114064718.29747  88881610.87645  21705772.4034   21705762.6884
        44.700          33.100
 125352654.23446  97677347.87543  23853822.2324   23853818.9074
        40.700          18.600
 106777513.69648  83203230.68746  20319079.1384   20319067.4904
        50.200          38.700
 114456172.42247  89186580.87445  21780267.3404   21780258.5054
        47.300          32.700
 106005907.06948  82602028.70946  20172232.4134   20172224.0474
        50.900          38.500
 125237331.80047  97587499.14444  23831877.7814   23831872.3454
        42.700          26.300
 117324100.99347  91421352.16045  22326031.3934   22326023.1444
        45.900          31.600
 09  5 11  0  3 30.0000000  0 11G25G31G 6G 7G19G32G23G16G 3G20G13
 122408454.34447  95383183.43144  23293547.6384   23293541.0894
        42.300          27.600
 126721015.38946  98743616.38844  24114204.0014   24114195.5764
        40.700          25.400
 108683779.85748  84688673.19646  20681820.3374   20681812.1464
        49.600          39.600
 130199335.84446 101453984.86943  24776107.1944   24776100.7624
        40.500          21.500
 113977408.56947  88813577.38045  21689158.4174   21689148.4104
        45.400          32.600
 125427605.65547  97735751.49243  23868088.2224   23868081.7904
        43.100          21.800
 106746723.10848  83179238.03446  20313220.0054   20313208.7094
        50.700          39.500
 114523765.73348  89239250.96945  21793130.0474   21793120.9194
        48.000          33.100
 105967162.08948  82571837.83646  20164859.2024   20164851.1884
        50.200          38.400
 125303682.60247  97639200.96444  23844504.0654   23844498.2784
        42.900          25.100
 117237721.66747  91354043.62945  22309594.2354   22309585.1654
        45.500          30.900
 09  5 11  0  4  0.0000000  0 11G25G31G 6G 7G19G32G23G16G 3G20G13
 122344258.90647  95333161.05644  23281332.3984   23281325.9664
        42.500          27.000
 126772476.11946  98783715.68443  24123996.0374   24123988.7854
        39.800          22.800
 108684314.17348  84689089.57246  20681921.6794   20681913.6064
        50.000          40.300
 130127006.48346 101397624.27943  24762343.3324   24762336.6074
        40.200          20.900
 113890425.42747  88745798.37845  21672606.0174   21672596.0684
        44.800          32.900
 125502506.70447  97794115.88943  23882339.5984   23882335.2764
        42.600          21.500
 106716506.45448  83155692.59446  20307469.6134   20307458.7264
        50.800          39.600
 114591452.28247  89291993.72945  21806010.5924   21806000.8194
        47.200          32.800
 105928992.94548  82542095.66946  20157595.7544   20157587.6224
        50.200          38.300
 125370086.43146  97690944.15344  23857139.9384   23857134.1514
        41.300          25.600
 117151664.53847  91286986.12844  22293216.9924   22293209.2124
        44.500          29.700
 09  5 11  0  4 30.0000000  0 11G25G31G 6G 7G19G32G23G16G 3G20G13
 122280013.11346  95283099.48444  23269105.5624   23269099.9514
        41.000          26.500
 126824088.62246  98823933.21544  24133818.3314   24133810.6694
        40.200          26.000
 108685408.11848  84689942.00946  20682130.0514   20682121.8614
        48.500          40.200
 130054580.98846 101341188.80443  24748562.2534   24748555.3524
        41.500          22.600
 113803773.92247  88678277.76445  21656116.9794   21656106.0924
        44.300          31.600
 125577357.04946  97852440.78643  23896581.7254   23896578.3994
        39.500          18.300
 106686867.65648  83132597.43246  20301829.4474   20301818.5024
        49.800          39.000
 114659232.23347  89344809.27245  21818908.8924   21818899.2374
        47.000          33.200
 105891403.75548  82512805.40246  20150442.6254   20150434.3764
        50.500          37.600
 125436542.17047  97742727.77844  23869787.3524   23869781.0964
        42.900          27.200
 117065934.47047  91220183.54645  22276903.2374   22276896.2784
        44.500          31.100
 09  5 11  0  5  0.0000000  0 11G25G31G 6G 7G19G32G23G16G 3G20G13
 122215715.56847  95232997.50444  23256871.3884   23256862.8464
        43.000          26.700
 126875851.03846  98864267.55344  24143667.3394   24143660.1454
        40.400          25.800
 108687059.40147  84691228.74646  20682444.0204   20682435.9474
        47.800          39.600
 129982057.34446 101284676.83543  24734761.2734   24734754.1974
        40.000          21.100
 113717455.04847  88611016.37645  21639690.6424   21639680.4014
        45.300          32.000
 125652151.83046  97910722.28843  23910815.4994   23910811.8814
        40.200          20.600
 106657805.83348  83109951.86846  20296299.4834   20296288.7144
        50.700          39.300
 114727101.68647  89397694.54545  21831823.5094   21831814.4404
        47.200          32.300
 105854393.57648  82483966.32646  20143400.2214   20143391.7964
        50.700          37.900
 125503044.67347  97794547.79544  23882440.5344   23882436.6224
        42.200          25.300
 116980532.41047  91153636.51845  22260652.5374   22260644.4644
        44.900          32.100
 09  5 11  0  5 30.0000000  0 11G25G31G 6G 7G19G32G23G16G 3G20G13
 122151367.71147  95182856.32944  23244625.4864   23244617.3554
        42.100          27.400
 126927765.22046  98904720.18244  24153547.6464   24153538.7534
        41.800          25.600
 108689268.83548  84692950.41046  20682864.2404   20682856.3434
        49.300          39.700
 129909436.49746 101228089.17243  24720942.1024   24720934.0884
        40.200          19.600
 113631472.41047  88544016.98645  21623328.7324   21623318.4324
        44.100          31.900
 125726889.26946  97968959.20543  23925037.7714   23925033.9184
        39.800          20.100
 106629323.01648  83087757.46646  20290878.6574   20290868.4744
        49.100          39.800
 114795059.73847  89450648.87745  21844755.7364   21844746.3734
        47.700          32.500
 105817964.69548  82455580.20846  20136468.1204   20136459.6954
        50.800          37.900
 125569592.07146  97846402.84944  23895104.3384   23895099.7224
        41.400          25.300
 116895461.95647  91087347.88645  22244463.5124   22244455.5564
        44.300          30.400
 09  5 11  0  6  0.0000000  0 11G25G31G 6G 7G19G32G23G16G 3G20G13
 122086969.92347  95132676.27444  23232371.9184   23232364.9584
        43.100          27.600
 126979831.61346  98945291.36444  24163455.4344   24163446.5414
        40.600          25.000
 108692036.05048  84695106.70546  20683391.2704   20683383.0214
        49.300          39.500
 129836718.14546 101171425.43643  24707103.2664   24707096.5414
        39.900          20.400
 113545828.47547  88477281.53645  21607031.4214   21607020.4764
        45.200          31.400
 125801566.54646  98027149.22943  23939248.2854   23939244.4904
        40.800          20.900
 106601421.06248  83066015.68346  20285569.7844   20285558.7814
        50.200          39.500
 114863104.05147  89503670.39845  21857704.0704   21857694.8254
        45.800          32.300
 105782117.79148  82427647.58246  20129646.4314   20129638.0654
        50.000          37.700
 125636181.01946  97898290.25644  23907775.7914   23907771.0004
        40.900          24.000
 116810725.65447  91021319.63945  22228339.7254   22228330.3044
        45.100          32.400
 09  5 11  0  6 30.0000000  0 11G25G31G 6G 7G19G32G23G16G 3G20G13
 122022523.48947  95082458.30544  23220107.0424   23220101.3134
        43.100          29.100
 127032050.83546  98985981.68244  24173392.1044   24173383.9144
        41.400          26.500
 108695361.56348  84697698.03746  20684023.7404   20684015.9024
        49.700          40.000
 129763903.43146 101114686.73243  24693247.6794   24693240.6034
        41.700          22.600
 113460527.19847  88410813.08945  21590799.2534   21590788.6014
        45.800          32.300
 125876181.69546  98085290.86643  23953446.0654   23953442.6804
        38.700          18.600
 106574101.92748  83044728.04246  20280371.0354   20280359.9734
        50.400          39.700
 114931233.21347  89556758.04145  21870668.4114   21870659.6944
        46.400          32.100
 105746854.94748  82400170.06246  20122936.0004   20122927.7514
        49.600          38.000
 125702809.55946  97950208.55044  23920455.9024   23920450.1734
        40.000          25.100
 116726326.87847  90955554.41645  22212278.9474   22212270.7564
        44.200          33.500
 09  5 11  0  7  0.0000000  0 11G25G31G 6G 7G19G32G23G16G 3G20G13
 121958030.23047  95032203.87044  23207834.9664   23207828.4164
        43.600          27.800
 127084424.89846  99026792.62944  24183358.2344   24183350.5134
        40.300          24.100
 108699246.14548  84700724.99246  20684763.1764   20684755.0454
        50.600          39.700
 129690993.36146 101057873.66343  24679374.5464   24679366.1804
        41.800          22.600
 113375572.25847  88344614.51745  21574632.1524   21574622.1454
        45.600          31.900
 125950733.27046  98143382.90542  23967633.1044   23967630.0134
        39.200          17.800
 106547367.76648  83023896.23246  20275283.7404   20275272.5604
        50.300          39.800
 114999446.66447  89609911.37045  21883649.4674   21883639.9294
        45.600          31.900
 105712178.71848  82373149.63846  20116337.5334   20116329.2844
        51.000          38.500
 125769475.73146  98002156.12443  23933141.5354   23933136.0414
        39.400          23.400
 116642269.67247  90890055.34845  22196282.1214   22196274.9864
        45.100          32.700
 09  5 11  0  7 30.0000000  0 11G25G31G 6G 7G19G32G23G16G 3G20G13
 121893488.57047  94981911.71144  23195553.6864   23195545.6134
        44.300          28.000
 127136952.45446  99067723.18944  24193353.9124   24193346.4834
        41.300          25.200
 108703687.46648  84704185.77346  20685607.8734   20685600.1524
        49.300          39.400
 129617986.37146 101000985.07843  24665480.8894   24665473.2264
        41.500          22.000
 113290964.47547  88278686.46145  21558532.6234   21558521.5614
        46.000          30.900
 126025216.26846  98201421.54943  23981807.4684   23981803.9664
        39.800          22.000
 106521218.11048  83003519.87246  20270307.8024   20270296.7404
        51.400          40.000
 115067740.33647  89663127.20345  21896645.0144   21896635.5934
        44.900          30.700
 105678087.87348  82346585.37646  20109849.9874   20109841.9144
        50.100          38.100
 125836174.61246  98054129.17543  23945833.6684   23945828.8194
        39.200          23.300
 116558554.44547  90824822.76545  22180352.4654   22180343.8644
        45.300          32.600
 09  5 11  0  8  0.0000000  0 11G25G31G 6G 7G19G32G23G16G 3G20G13
 121828899.10447  94931582.24344  23183262.8774   23183253.9844
        43.700          26.100
 127189633.82147  99108773.61144  24203378.4294   24203371.1764
        42.200          25.400
 108708685.22348  84708080.15046  20686559.0294   20686551.0734
        49.100          38.800
 129544882.01946 100944020.64843  24651569.3954   24651562.2604
        41.100          21.500
 113206706.24547  88213030.74845  21542498.4494   21542487.3874
        46.200          31.800
 126099628.19447  98259404.80843  23995968.6324   23995964.4274
        42.100          22.300
 106495653.95748  82983599.75746  20265442.7394   20265431.9114
        49.500          39.800
 115136112.45047  89716404.17245  21909655.8434   21909646.5394
        44.900          30.500
 105644583.30948  82320477.95246  20103474.5754   20103465.9744
        49.900          37.900
 125902903.13146  98106125.36143  23958531.3944   23958527.2484
        39.200          23.800
 116475184.25547  90759859.01745  22164487.7974   22164478.8444
        45.600          32.700
 09  5 11  0  8 30.0000000  0 11G25G31G 6G 7G19G32G23G16G 3G20G13
 121764264.17147  94881217.36044  23170962.5094   23170954.5544
        43.200          27.500
 127242471.12046  99149945.55244  24213432.9704   24213425.8944
        41.700          24.900
 108714240.86348  84712409.23046  20687616.4494   20687608.2584
        49.500          39.300
 129471682.30347 100886981.91243  24637640.9844   24637632.8534
        43.200          21.500
 113122802.45647  88147651.24145  21526531.8954   21526521.7124
        45.500          31.300
 126173968.23946  98317332.00043  24010114.7704   24010110.0384
        40.000          19.000
 106470678.64748  82964138.47046  20260690.8804   20260679.7594
        51.500          39.900
 115204562.64647  89769741.96444  21922681.6754   21922672.1374
        44.600          29.700
 105611668.38848  82294829.97046  20097210.8434   20097202.4184
        49.600          38.200
 125969660.05646  98158143.65244  23971235.9334   23971230.3214
        40.400          24.600
 116392163.40847  90695167.50745  22148689.5864   22148681.2784
        45.000          32.600
 09  5 11  0  9  0.0000000  0 11G25G31G 6G 7G19G32G23G16G 3G20G13
 121699583.44246  94830816.82244  23158654.4714   23158647.8644
        41.700          29.400
 127295464.12846  99191238.78744  24223517.9664   24223510.3034
        41.100          25.400
 108720352.90448  84717171.87946  20688779.9064   20688771.5404
        49.900          38.900
 129398386.70947 100829868.42843  24623693.3064   24623684.9404
        42.700          21.700
 113039254.64647  88082549.09545  21510632.7004   21510623.1034
        45.600          31.700
 126248232.67346  98375200.39343  24024247.0024   24024241.7434
        40.700          19.000
 106446292.15248  82945136.00946  20256049.5854   20256038.8744
        50.500          40.100
 115273087.83547  89823138.21145  21935721.4354   21935711.6624
        44.600          30.000
 105579342.77148  82269641.20046  20091059.3234   20091051.3094
        48.600          38.500
 126036441.68146  98210181.24143  23983943.1314   23983937.9894
        39.700          21.800
 116309493.65347  90630749.58445  22132958.1804   22132949.6384
        47.400          33.000
 09  5 11  0  9 30.0000000  0 11G25G31G 6G 7G19G32G23G16G 3G20G13
 121634858.47247  94780381.84844  23146337.2094   23146330.6594
        42.000          29.700
 127348614.03146  99232654.30944  24233631.0744   24233623.5874
        41.600          24.200
 108727021.98848  84722368.59146  20690048.8444   20690040.8884
        49.000          39.300
 129324996.00547 100772680.87543  24609726.9164   24609719.8984
        42.200          22.800
 112956066.51647  88017727.23745  21494802.3694   21494793.1824
        44.900          31.800
 126322419.72046  98433008.33343  24038365.2724   24038360.2474
        41.500          21.700
 106422496.64648  82926594.06646  20251521.5544   20251510.4914
        50.800          40.400
 115341687.18947  89876592.25145  21948774.9924   21948765.8644
        44.500          30.200
 105547608.62348  82244913.33146  20085020.7954   20085012.7224
        49.800          38.600
 126103245.77546  98262236.30743  23996656.4744   23996650.8044
        40.500          22.300
 116227178.75047  90566608.17545  22117293.9454   22117285.2284
        46.600          31.800
 09  5 11  0 10  0.0000000  0 11G25G31G 6G 7G19G32G23G16G 3G20G13
 121570089.42247  94729912.49044  23134012.9774   23134004.9044
        43.800          29.300
 127401920.76947  99274192.03844  24243775.9744   24243767.9014
        42.700          24.300
 108734247.04048  84727998.51546  20691423.6074   20691415.4754
        49.300          39.700
 129251510.09446 100715419.12543  24595742.1064   24595735.3234
        40.800          21.100
 112873240.28047  87953187.35445  21479040.8454   21479031.2484
        45.700          32.000
 126396526.21046  98490753.57843  24052465.0064   24052461.6814
        39.500          20.400
 106399292.80848  82908513.14346  20247106.0524   20247094.9904
        51.100          39.800
 115410358.56447  89930102.41744  21961842.6414   21961832.8684
        43.400          29.100
 105516466.13148  82220646.47446  20079094.7184   20079086.1174
        50.100          38.300
 126170069.01546  98314306.27343  24009372.3894   24009367.4234
        39.800          22.900
 116145220.92447  90502744.95345  22101697.5644   22101688.7874
        47.200          32.100
 09  5 11  0 10 30.0000000  0 11G25G31G 6G 7G19G32G23G16G 3G20G13
 121505278.14847  94679410.20744  23121679.2984   23121670.8154
        44.900          27.800
 127455386.09647  99315853.30644  24253950.9194   24253941.7324
        43.300          26.100
 108742029.01048  84734062.41746  20692904.3394   20692896.2074
        48.800          39.000
 129177930.13446 100658084.06843  24581740.6114   24581733.7694
        41.600          21.800
 112790779.98547  87888932.62545  21463349.2794   21463339.7414
        44.700          32.600
 126470550.89146  98548435.07043  24066552.0444   24066547.8394
        39.700          19.300
 106376683.09848  82890895.18546  20242803.5004   20242792.5554
        50.000          40.900
 115479100.77947  89983667.77444  21974923.8104   21974914.2714
        45.100          28.600
 105485917.54148  82196842.41146  20073281.0824   20073273.1854
        49.500          38.000
 126236909.24846  98366389.52343  24022091.8014   24022087.2454
        40.400          23.400
 116063623.75847  90439162.80745  22086169.8484   22086161.5994
        46.900          32.300
 09  5 11  0 11  0.0000000  0 11G25G31G 6G 7G19G32G23G16G 3G20G13
 121440424.62147  94628875.02744  23109337.7574   23109329.5664
        44.300          28.000
 127509009.70147  99357637.97944  24264154.0844   24264146.0114
        43.200          25.600
 108750366.58348  84740559.24246  20694491.2364   20694482.2254
        50.400          39.100
 129104255.28446 100600675.11343  24567720.7084   24567713.9834
        41.600          22.600
 112708687.51147  87824964.50345  21447727.4664   21447718.2204
        44.800          33.100
 126544490.47546  98606050.23843  24080622.3804   24080618.6444
        40.400          18.600
 106354667.92948  82873740.52646  20238614.3214   20238603.4944
        51.100          40.500
 115547911.52947  90037286.54744  21988018.6884   21988008.7984
        45.900          29.000
 105455963.18348  82173501.37346  20067580.9344   20067573.2724
        50.300          37.600
 126303763.33646  98418483.53643  24034813.8214   24034808.7374
        39.800          23.000
 115982389.60947  90375863.53745  22070711.2584   22070703.6534
        45.600          32.700
 09  5 11  0 11 30.0000000  0 11G25G31G 6G 7G19G32G23G16G 3G20G13
 121375529.27547  94578307.25744  23096988.3364   23096981.0834
        44.500          29.600
 127562791.95246  99399546.21344  24274387.1394   24274381.1764
        41.400          25.200
 108759259.04948  84747488.45146  20696183.2484   20696175.1164
        49.600          38.800
 129030485.97447 100543192.53743  24553683.5894   24553676.8054
        42.600          23.500
 112626965.35947  87761284.94445  21432176.9184   21432166.6184
        44.800          33.500
 126618341.95846  98663596.86343  24094677.1814   24094672.0974
        41.100          21.100
 106333248.20048  82857049.82946  20234538.3164   20234527.4884
        50.800          40.800
 115616788.75047  90090957.10944  22001124.8154   22001115.6874
        45.000          29.000
 105426604.16748  82150624.23846  20061994.3574   20061986.0494
        50.100          39.000
 126370628.17646  98470585.87343  24047537.2174   24047532.3674
        36.700          20.900
 115901520.88047  90312848.98245  22055323.4444   22055314.2584
        47.200          32.800
 09  5 11  0 12  0.0000000  0 11G25G31G 6G 7G19G32G23G16G 3G20G13
 121310593.93247  94527708.33545  23084631.5894   23084625.1574
        44.900          30.000
 127616734.06647  99441579.03544  24284652.6994   24284645.9164
        42.100          25.800
 108768707.13248  84754850.60146  20697981.2754   20697972.4984
        50.200          39.000
 128956623.17547 100485637.12143  24539627.5744   24539620.7904
        42.800          22.800
 112545617.31747  87697896.91745  21416696.8244   21416687.3454
        45.800          33.900
 126692103.78046  98721073.57043  24108711.9094   24108708.9354
        36.100          19.900
 106312425.92748  82840824.68846  20230575.4154   20230564.9394
        51.000          40.400
 115685731.56447  90144678.77344  22014244.6954   22014235.2164
        45.800          29.300
 105397842.19448  82128212.33446  20056520.9944   20056513.2734
        49.900          38.600
 126437501.67546  98522695.07143  24060263.4484   24060257.7784
        38.300          20.900
 115821021.15547  90250121.96745  22040004.3114   22039995.2414
        47.600          32.500
 09  5 11  0 12 30.0000000  0 11G25G31G 6G 7G19G32G23G16G 3G20G13
 121245618.39947  94477078.12444  23072267.2414   23072260.7504
        45.300          29.400
 127670835.99447  99483736.39043  24294948.3604   24294940.8734
        42.900          23.900
 108778709.52048  84762644.69646  20699884.1544   20699876.2574
        49.200          39.400
 128882666.38947 100428008.46343  24525554.1184   24525547.2174
        42.700          22.600
 112464645.51347  87634802.06745  21401288.5184   21401278.9214
        46.200          35.200
 126765772.95246  98778477.94043  24122730.9284   24122728.3064
        38.300          20.100
 106292201.60448  82825065.47046  20226727.1834   20226716.2964
        50.800          40.200
 115754737.43447  90198449.58844  22027376.1814   22027366.4084
        44.700          29.400
 105369677.44748  82106265.80346  20051161.1484   20051152.8414
        50.600          38.500
 126504380.17346  98574808.11643  24072990.5364   24072984.3394
        38.400          22.500
 115740892.66747  90187684.23145  22024756.2324   22024747.8664
        47.300          32.700
 09  5 11  0 13  0.0000000  0 11G25G31G 6G 7G19G32G23G16G 3G20G13
 121180603.70547  94426417.34244  23059895.3714   23059887.0634
        45.000          28.000
 127725098.09847  99526018.55444  24305274.6594   24305267.3484
        43.000          26.400
 108789265.74148  84770870.34146  20701893.1214   20701885.0484
        49.500          38.300
 128808615.98347 100370306.81043  24511462.9834   24511455.0274
        43.100          22.000
 112384052.53647  87572002.40845  21385951.7814   21385942.3604
        45.500          35.100
 126839346.57346  98835808.01143  24136732.7724   24136728.3334
        39.100          21.100
 106272576.53548  82809773.21246  20222992.4614   20222981.8094
        50.200          40.100
 115823804.67147  90252268.21444  22040518.8664   22040509.1514
        44.600          28.300
 105342110.29448  82084784.93946  20045915.3574   20045907.1674
        49.000          38.200
 126571260.68346  98626922.75343  24085716.6914   24085710.7864
        38.900          21.500
 115661138.16447  90125537.88645  22009579.8854   22009570.8744
        46.900          31.800
 09  5 11  0 13 30.0000000  0 11G25G31G 6G 7G19G32G23G16G 3G20G13
 121115551.00247  94375726.95944  23047516.1564   23047507.8494
        45.600          28.800
 127779521.81947  99568426.67144  24315630.3864   24315623.5444
        43.200          25.300
 108800375.62248  84779527.39246  20704007.3574   20703999.1084
        48.700          38.900
 128734472.78246 100312532.97443  24497353.7514   24497346.5574
        41.800          22.500
 112303841.48547  87509500.34445  21370688.4564   21370678.2154
        45.900          35.100
 126912822.95146  98893062.33242  24150713.6274   24150709.9504
        36.200          17.400
 106253551.51648  82794948.52446  20219372.1564   20219361.3864
        50.000          40.000
 115892932.25547  90306133.85644  22053673.1844   22053663.6464
        42.900          29.400
 105315142.72448  82063771.26746  20040783.6834   20040775.3764
        50.500          38.800
 126638141.38746  98679037.49643  24098443.4514   24098438.4854
        38.100          21.500
 115581760.92547  90063685.53745  21994474.5494   21994465.9494
        46.000          32.300
 09  5 11  0 14  0.0000000  0 11G25G31G 6G 7G19G32G23G16G 3G20G13
 121050461.15647  94325007.64845  23035130.8254   23035122.9274
        46.400          30.700
 127834107.26347  99610960.74844  24326018.7004   24326010.2754
        44.500          27.000
 108812038.70948  84788615.52846  20706227.0164   20706218.5334
        48.300          39.300
 128660237.07947 100254686.96444  24483227.4874   24483220.4104
        42.000          25.600
 112224015.24347  87447298.12645  21355497.9184   21355487.7354
        46.700          35.300
 126986199.45146  98950238.73043  24164678.0414   24164673.8374
        37.000          21.100
 106235128.27748  82780592.76146  20215866.7284   20215856.0184
        49.800          40.800
 115962118.21047  90360044.98444  22066839.4364   22066829.7224
        43.700          28.300
 105288775.21448  82043225.17646  20035765.9814   20035757.7324
        50.400          39.200
 126705019.45246  98731150.13643  24111169.6124   24111164.9394
        38.300          20.900
 115502763.59547  90002129.19945  21979441.1394   21979432.5394
        44.300          32.700
 09  5 11  0 14 30.0000000  0 11G25G31G 6G 7G19G32G23G16G 3G20G13
 120985334.74647  94274259.87245  23022737.2774   23022730.2004
        45.900          30.600
 127888854.73947  99653621.18044  24336436.1984   24336428.1834
        44.700          26.000
 108824254.31048  84798134.20746  20708551.6404   20708543.4504
        48.900          38.900
 128585908.87146 100196768.88344  24469083.8594   24469075.9624
        41.700          24.100
 112144576.31447  87385397.72146  21340381.3794   21340371.1964
        47.500          36.000
 127059473.41546  99007335.21843  24178621.4984   24178618.1724
        37.500          22.500
 106217307.56948  82766706.49546  20212475.1224   20212464.4704
        50.000          40.000
 116031360.40047  90413999.93344  22080015.6794   22080005.8484
        43.000          28.700
 105263008.88048  82023147.54246  20030862.7454   20030854.6724
        49.500          38.500
 126771891.60646  98783258.23243  24123896.5874   24123889.8034
        40.100          20.900
 115424148.61547  89940870.82145  21964482.0074   21964473.7004
        45.500          33.200
 09  5 11  0 15  0.0000000  0 11G25G31G 6G 7G19G32G23G16G 3G20G13
 120920172.60347  94223484.24045  23010336.6194   23010329.3664
        44.600          30.200
 127943764.81347  99696408.25243  24346884.2054   24346876.4834
        42.600          22.800
 108837021.81648  84808082.93346  20710980.9224   20710972.5564
        48.700          39.500
 128511488.66846 100138779.15644  24454922.0134   24454914.9364
        40.100          25.500
 112065527.30547  87323801.15146  21325338.9244   21325328.3894
        47.700          36.100
 127132642.35346  99064349.93543  24192546.8324   24192540.8694
        41.600          21.500
 106200090.23448  82753290.39646  20209198.9264   20209187.9804
        49.800          40.200
 116100657.20047  90467997.42744  22093202.4494   22093193.2034
        43.800          27.200
 105237844.25448  82003538.75546  20026074.8804   20026066.2214
        50.200          38.800
 126838755.07746  98835359.57843  24136619.4394   24136613.5934
        40.600          19.300
 115345918.84847  89879912.57245  21949594.7034   21949586.1614
        45.900          32.000
 09  5 11  0 15 30.0000000  0 11G25G31G 6G 7G19G32G23G16G 3G20G13
 120854976.09547  94172681.82744  22997931.0344   22997922.6684
        45.900          29.300
 127998838.50247  99739322.81344  24357365.3884   24357357.6084
        44.400          26.400
 108850341.16148  84818461.66446  20713514.8934   20713506.8204
        48.700          39.200
 128436977.42846 100080718.51743  24440742.3454   24440736.1484
        40.000          22.800
 111986871.82948  87262511.23145  21310371.0134   21310360.1854
        48.100          35.100
 127205704.38646  99121281.27842  24206448.0344   24206443.6534
        38.700          17.800
 106183477.71548  82740345.57246  20206037.9594   20206026.4864
        49.800          40.900
 116170007.91647  90522036.92744  22106399.0264   22106389.9574
        44.200          27.600
 105213282.60448  81984399.83846  20021400.4404   20021391.7814
        49.600          38.600
 126905607.64846  98887452.42543  24149341.6984   24149335.6774
        41.700          21.800
 115268077.61147  89819257.07145  21934782.2854   21934773.6844
        46.400          32.400
 09  5 11  0 16  0.0000000  0 11G25G31G 6G 7G19G32G23G16G 3G20G13
 120789745.61647  94121852.90744  22985518.0624   22985509.2274
        47.000          29.700
 128054075.62547  99782364.73444  24367877.2984   24367869.2254
        45.600          27.100
 108864211.20848  84829269.50946  20716154.6944   20716146.4454
        50.200          39.500
 128362374.71446 100022586.49843  24426546.0104   24426538.0544
        39.400          21.100
 111908611.51647  87201529.23345  21295478.7444   21295468.0924
        47.000          35.100
 127278656.55546  99178127.18343  24220329.7884   24220325.9944
        38.300          18.300
 106167470.49948  82727872.42846  20202991.3964   20202980.4514
        49.700          40.300
 116239409.69047  90576116.21944  22119606.1434   22119596.9564
        44.000          28.400
 105189324.46648  81965731.17846  20016841.1174   20016832.6934
        50.500          39.300
 126972445.90947  98939534.16543  24162061.5634   24162054.3694
        42.900          21.100
 115190627.21047  89758906.14045  21920043.8604   21920035.2014
        45.600          32.400
 09  5 11  0 16 30.0000000  0 11G25G31G 6G 7G19G32G23G16G 3G20G13
 120724482.05047  94070998.25144  22973097.8314   22973090.6374
        45.500          29.300
 128109477.09747  99825534.69044  24378419.4224   24378411.4664
        44.800          25.800
 108878631.32548  84840505.97546  20718898.9074   20718890.5994
        49.000          39.500
 128287680.93147  99964383.56143  24412333.5624   24412324.6104
        43.200          22.800
 111830749.41747  87140857.52045  21280662.0844   21280650.7874
        46.600          35.000
 127351496.44046  99234885.45943  24234191.3304   24234188.6494
        37.100          22.000
 106152069.86548  82715871.94546  20200060.5594   20200050.3764
        49.200          40.400
 116308861.00547  90630234.10944  22132822.6694   22132812.8384
        44.500          26.600
 105165970.08848  81947532.98446  20012397.0894   20012388.3714
        49.400          39.200
 127039267.45746  98991602.79743  24174775.5264   24174770.7364
        41.600          20.100
 115113570.29947  89698861.80645  21905379.8994   21905371.7084
        45.000          32.900
 09  5 11  0 17  0.0000000  0 11G25G31G 6G 7G19G32G23G16G 3G20G13
 120659186.73247  94020118.84645  22960672.3294   22960665.8974
        44.700          30.400
 128165043.37247  99868833.12744  24388993.1944   24388985.1794
        44.400          25.300
 108893601.42848  84852171.00546  20721747.4424   20721739.0764
        49.700          38.900
 128212896.98647  99906110.32843  24398101.9214   24398094.0834
        42.300          22.300
 111753288.89447  87080498.74245  21265921.2974   21265910.5284
        46.200          34.800
 127424222.17146  99291554.79443  24248031.5544   24248027.4664
        39.500          21.100
 106137276.98348  82704345.03046  20197246.2324   20197235.4044
        50.500          40.400
 116378360.92347  90684389.89044  22146047.7064   22146038.1684
        45.100          27.700
 105143221.42748  81929806.77546  20008068.0984   20008059.3214
        50.300          39.100
 127106069.73046  99043656.44443  24187488.9344   24187483.2634
        41.300          22.300
 115036910.28447  89639126.74045  21890792.6984   21890784.1564
        46.600          33.600
 09  5 11  0 17 30.0000000  0 11G25G31G 6G 7G19G32G23G16G 3G20G13
 120593860.64647  93969215.49345  22948241.1344   22948234.4094
        45.500          30.200
 128220775.65347  99912260.91644  24399598.0454   24399590.6164
        43.600          26.200
 108909120.83448  84864264.07646  20724700.6924   20724692.2094
        49.800          39.300
 128138023.40946  99847767.30243  24383853.8774   24383846.0384
        39.700          22.500
 111676232.49147  87020454.84545  21251257.7924   21251246.9644
        46.100          34.400
 127496831.40046  99348133.30943  24261847.1724   24261843.9634
        36.600          19.900
 106123092.91648  82693292.52646  20194546.3984   20194535.8634
        50.000          40.400
 116447908.01947  90738582.41144  22159282.0324   22159272.4944
        44.500          27.700
 105121078.72248  81912552.74846  20003854.8824   20003846.4584
        50.300          39.200
 127172850.14146  99095693.10143  24200195.6174   24200189.7714
        40.400          19.600
 114960649.90547  89579703.07345  21876281.2644   21876272.6634
        46.300          32.800
 09  5 11  0 18  0.0000000  0 11G25G31G 6G 7G19G32G23G16G 3G20G13
 120528505.73647  93918289.63945  22935806.1374   22935797.2434
        46.100          30.300
 128276674.60747  99955818.55344  24410235.6504   24410228.9254
        44.200          26.100
 108925189.96148  84876785.48646  20727758.7564   20727750.0974
        49.000          39.400
 128063061.55346  99789355.50243  24369588.3724   24369581.5304
        39.700          22.800
 111599583.75747  86960728.61845  21236671.7404   21236661.3814
        46.400          33.900
 127569322.76246  99404619.97242  24275642.2584   24275638.8154
        36.300          16.300
 106109519.44148  82682715.79946  20191963.7974   20191952.9694
        50.200          40.600
 116517501.36247  90792810.98944  22172524.7494   22172515.5044
        44.800          27.400
 105099543.72648  81895772.26346  19999756.7954   19999748.3114
        50.900          39.200
 127239606.85046  99147711.24043  24212899.2964   24212893.7434
        40.700          20.100
 114884792.71947  89520593.59645  21861845.8144   21861837.0964
        45.300          33.300
 09  5 11  0 18 30.0000000  0 11G25G31G 6G 7G19G32G23G16G 3G20G13
 120463120.80547  93867340.37644  22923362.0364   22923353.8464
        44.700          28.900
 128332738.89547  99999505.00044  24420904.4704   24420896.8664
        44.900          25.300
 108941805.79448  84889732.90646  20730920.3724   20730912.2994
        49.100          40.100
 127988009.69046  99730873.54843  24355306.6444   24355299.0994
        39.200          22.000
 111523343.38947  86901320.60945  21222163.7424   21222153.7934
        44.600          34.400
 127641691.51646  99461011.34443  24289414.6224   24289409.9494
        37.900          19.000
 106096555.44948  82672613.98546  20189497.0174   20189486.2484
        49.900          40.800
 116587137.32547  90847072.76044  22185776.4264   22185766.9464
        45.600          27.400
 105078614.56548  81879463.84746  19995773.9564   19995765.6484
        51.000          39.400
 127306335.17446  99199707.26543  24225597.4114   24225591.5654
        40.200          20.600
 114809339.48847  89461798.87745  21847487.4314   21847478.6554
        45.900          33.500
 09  5 11  0 19  0.0000000  0 11G25G31G 6G 7G19G32G23G16G 3G20G13
 120397707.34947  93816368.92545  22910914.8024   22910907.4914
        45.900          30.700
 128388969.77547 100043321.28644  24431604.6894   24431597.0264
        44.300          25.000
 108958968.23548  84903106.25546  20734186.1824   20734178.3434
        50.000          39.600
 127912868.99046  99672322.31443  24341007.7564   24340999.0974
        41.000          21.800
 111447514.56047  86842233.25445  21207734.4044   21207723.6934
        46.500          34.500
 127713936.07046  99517305.67943  24303162.7734   24303158.3344
        36.800          21.700
 106084202.22648  82662988.10346  20187145.6084   20187135.7184
        50.000          41.300
 116656814.96547  90901367.02244  22199036.2314   22199026.3414
        45.700          27.400
 105058293.29748  81863629.11446  19991906.5114   19991898.4384
        51.000          40.000
 127373033.02446  99251679.59243  24238289.9654   24238284.6464
        41.600          20.600
 114734293.44847  89403321.46045  21833206.6944   21833197.8004
        46.200          32.800
 09  5 11  0 19 30.0000000  0 11G25G31G 6G 7G19G32G23G16G 3G20G13
 120332267.19247  93765376.68044  22898461.6894   22898454.6124
        45.600          29.800
 128445368.43247 100087268.31444  24442337.7704   24442329.7564
        45.100          25.800
 108976677.30948  84916905.54646  20737556.1124   20737548.0394
        49.700          39.100
 127837640.54946  99613702.74443  24326691.5694   24326684.3164
        39.700          22.500
 111372100.49447  86783469.10045  21193383.4724   21193372.8784
        46.500          34.400
 127786054.91546  99573502.07643  24316885.5314   24316882.4984
        36.900          20.400
 106072461.24048  82653839.29346  20184911.5864   20184901.2854
        50.000          41.000
 116726533.43647  90955693.08144  22212303.0974   22212293.5594
        46.700          27.500
 105038580.79148  81848268.74146  19988155.2804   19988147.4414
        50.600          39.900
 127439698.31047  99303626.47843  24250975.6364   24250970.6104
        42.100          21.500
 114659658.03247  89345164.00545  21819003.7614   21818995.2784
        46.500          32.900
 09  5 11  0 20  0.0000000  0 11G25G31G 6G 7G19G32G23G16G 3G20G13
 120266800.73247  93714363.92044  22886003.8444   22885996.4164
        44.900          29.400
 128501934.62247 100131345.90844  24453101.5954   24453093.8154
        44.400          26.000
 108994931.94848  84931129.95846  20741029.9074   20741021.7754
        49.900          39.600
 127762324.50646  99555014.98744  24312360.2684   24312352.9574
        40.300          25.600
 111297103.63147  86725030.03145  21179111.6614   21179101.7134
        46.300          34.900
 127858045.10645  99629598.16842  24330585.8934   24330582.0394
        35.900          17.800
 106061332.83548  82645167.80346  20182794.2924   20182783.6404
        50.800          41.400
 116796290.46047  91010049.19944  22225576.8584   22225567.4954
        44.000          27.300
 105019477.43248  81833383.03246  19984520.4994   19984512.0164
        50.500          40.300
 127506328.08347  99355545.71943  24263655.5424   24263649.6964
        42.600          21.300
 114585435.74747  89287328.49545  21804880.5074   21804871.2034
        46.600          33.300
 09  5 11  0 20 30.0000000  0 11G25G31G 6G 7G19G32G23G16G 3G20G13
 120201308.58847  93663331.14244  22873541.3664   22873533.8214
        44.800          29.700
 128558668.45647 100175554.13444  24463896.9534   24463890.1104
        44.000          25.500
 109013730.54748  84945778.23346  20744607.1934   20744598.8274
        49.500          39.600
 127686920.54646  99496258.72444  24298011.4134   24298004.6294
        41.800          25.500
 111222525.97347  86666917.61445  21164919.8394   21164910.1244
        46.000          35.100
 127929903.85446  99685592.06442  24344260.8484   24344254.4164
        40.300          17.400
 106050817.20048  82636973.80046  20180793.4744   20180782.2364
        51.200          41.000
 116866084.21747  91064433.92144  22238858.2094   22238848.4374
        43.900          28.800
 105000982.77948  81818971.63946  19981000.8444   19980992.4784
        50.300          40.700
 127572918.95547  99407434.63143  24276327.1904   24276321.5204
        43.900          20.900
 114511628.60547  89229816.47045  21790834.6004   21790825.8234
        45.800          32.700
 09  5 11  0 21  0.0000000  0 11G25G31G 6G 7G19G32G23G16G 3G20G13
 120135792.57447  93612279.73844  22861074.3434   22861064.9224
        45.800          28.600
 128615571.40947 100219894.10144  24474726.4274   24474718.2954
        43.800          24.700
 109033073.49248  84960850.67146  20748288.2744   20748279.6154
        49.500          39.700
 127611430.28446  99437435.16744  24283646.1244   24283639.2824
        40.200          24.600
 111148371.18647  86609134.71146  21150808.2014   21150798.5454
        45.800          36.100
 128001629.82246  99741482.44643  24357907.9854   24357904.5424
        37.300          18.300
 106040916.12248  82629258.67646  20178909.2284   20178897.9904
        51.300          41.000
 116935914.10547  91118846.82444  22252146.9204   22252136.9124
        45.300          28.000
 104983098.81748  81805036.10846  19977597.7094   19977589.3434
        50.100          39.900
 127639469.37347  99459292.04543  24288991.0684   24288984.9294
        42.800          20.100
 114438240.33847  89172630.83345  21776869.8664   21776860.4454
        45.900          33.800
 09  5 11  0 21 30.0000000  0 11G25G31G 6G 7G19G32G23G16G 3G20G13
 120070253.31447  93561210.22844  22848601.8844   22848594.0454
        43.900          29.400
 128672643.37747 100264365.77844  24485585.9004   24485578.4134
        44.000          25.500
 109052959.25848  84976346.08246  20752072.0104   20752063.9374
        51.000          39.300
 127535853.64246  99378544.30843  24269264.3844   24269256.1364
        40.800          22.600
 111074641.33647  86551682.92646  21136778.4634   21136768.1634
        46.900          36.900
 128073220.21546  99797267.05043  24371531.7654   24371528.2644
        36.400          19.300
 106031629.83748  82622022.61946  20177142.0594   20177130.9974
        50.900          40.900
 117005778.50447  91173286.60344  22265441.7584   22265432.1024
        45.300          26.800
 104965825.10548  81791576.08946  19974310.6064   19974302.4744
        50.100          40.400
 127705975.96647  99511115.31443  24301647.6514   24301641.6884
        43.800          20.900
 114365273.06747  89115773.25945  21762984.6704   21762975.6004
        47.300          33.900
 09  5 11  0 22  0.0000000  0 11G25G31G 6G 7G19G32G23G16G 3G20G13
 120004692.07447  93510123.59544  22836126.0704   22836118.7014
        42.300          29.800
 128729885.11647 100308969.79444  24496478.9104   24496470.3094
        44.100          24.600
 109073387.45648  84992264.17946  20755959.5564   20755951.3074
        49.000          39.200
 127460191.67447  99319586.94844  24254866.9524   24254857.7654
        42.900          24.000
 111001339.16747  86494564.39346  21122829.9834   21122819.3314
        47.700          37.100
 128144673.14546  99852944.58943  24385129.8814   24385125.6174
        38.100          19.000
 106022959.22648  82615266.29446  20175491.9684   20175481.0824
        52.100          41.200
 117075675.38547  91227751.69544  22278742.7454   22278733.0304
        46.900          27.500
 104949162.66448  81778592.39746  19971139.9224   19971131.8494
        52.000          40.100
 127772436.43547  99562902.62443  24314294.4144   24314288.3924
        42.900          19.600
 114292729.84047  89059246.10945  21749180.2364   21749170.8744
        46.400          33.500
 09  5 11  0 22 30.0000000  0 11G25G31G 6G 7G19G32G23G16G 3G20G13
 119939109.35647  93459020.23644  22823646.0674   22823638.1694
        42.300          28.900
 128787296.32247 100353705.83743  24507404.7724   24507395.7614
        43.000          22.500
 109094356.71448  85008603.87846  20759949.7874   20759941.4804
        49.700          39.700
 127384444.25847  99260563.03244  24240453.3484   24240444.6304
        43.900          25.200
 110928466.72347  86437780.71146  21108962.0344   21108952.1444
        47.900          38.100
 128215985.56146  99908512.66443  24398699.5914   24398694.9764
        39.100          18.300
 106014904.30548  82608989.73146  20173959.3144   20173948.0764
        50.200          40.900
 117145603.07347  91282240.79644  22292048.3234   22292039.1954
        46.800          28.300
 104933111.70748  81766085.17446  19968085.4894   19968077.0644
        51.100          40.900
 127838847.63246  99614651.52443  24326931.5204   24326926.2014
        41.700          19.900
 114220612.83047  89003051.07645  21735456.2204   21735447.3854
        47.300          33.700
 09  5 11  0 23  0.0000000  0 11G25G31G 6G 7G19G32G23G16G 3G20G13
 119873506.64247  93407901.26544  22811162.9454   22811154.7554
        42.600          28.800
 128844878.46647 100398575.09743  24518360.8854   24518352.8704
        42.900          22.900
 109115866.46348  85025364.74746  20764043.1574   20764034.7914
        49.700          39.200
 127308612.20547  99201473.21244  24226021.8434   24226014.3564
        43.900          27.000
 110856027.32848  86381334.47446  21095177.6014   21095167.7114
        49.100          38.900
 128287155.68046  99963969.98643  24412242.8934   24412237.3404
        38.100          18.300
 106007466.20548  82603193.80546  20172543.9344   20172533.1064
        50.800          41.100
 117215560.64847  91336753.18444  22305361.4604   22305352.3904
        46.600          28.300
 104917672.55548  81754054.68946  19965147.5024   19965139.2534
        50.500          40.400
 127905207.76746  99666360.66843  24339559.7354   24339553.4794
        41.700          19.000
 114148925.51347  88947190.84745  21721814.4324   21721805.7734
        47.200          33.000
 09  5 11  0 23 30.0000000  0 11G25G31G 6G 7G19G32G23G16G 3G20G13
 119807885.03947  93356767.60344  22798674.8254   22798666.1664
        42.200          28.300
 128902631.21147 100443577.24944  24529351.8544   24529343.6634
        44.000          24.400
 109137915.89748  85042546.13846  20768238.6714   20768230.1294
        49.300          38.800
 127232696.00646  99142317.78444  24211574.4144   24211568.1584
        41.000          24.600
 110784023.38848  86325227.54346  21081475.8864   21081465.8794
        48.000          38.200
 128358181.39546 100019314.68142  24425758.0984   24425754.1274
        37.100          16.900
 106000645.69548  82597879.12246  20171245.6634   20171234.7184
        51.200          41.300
 117285546.42447  91391287.54944  22318680.0464   22318670.2154
        47.300          27.800
 104902845.87248  81742501.45546  19962325.9474   19962317.4634
        50.500          40.700
 127971513.49047  99718027.43043  24352178.0914   24352171.6014
        43.100          20.100
 114077669.84747  88891666.98345  21708255.0624   21708246.2854
        47.800          33.600
 09  5 11  0 24  0.0000000  0 11G25G31G 6G 7G19G32G23G16G 3G20G13
 119742245.77547  93305620.11744  22786183.5514   22786175.3604
        43.000          27.700
 128960555.32047 100488712.92844  24540374.0394   24540366.9634
        43.700          26.200
 109160503.94848  85060147.22046  20772537.2154   20772528.5554
        50.300          38.900
 127156696.57146  99083097.46943  24197112.3994   24197104.6774
        41.400          22.500
 110712457.26348  86269461.77646  21067857.3144   21067847.3074
        49.100          39.200
 128429060.40846 100074544.97243  24439246.1174   24439242.0884
        39.400          18.600
 105994443.42648  82593046.18946  20170065.7524   20170054.5144
        51.300          40.800
 117355559.08148  91445842.85244  22332003.0064   22331993.4094
        48.000          29.400
 104888632.13648  81731425.83046  19959621.1434   19959612.5424
        50.200          40.200
 128037762.56747  99769649.99743  24364784.5144   24364778.7274
        43.000          22.300
 114006848.78247  88836481.75245  21694777.9804   21694769.3794
        47.000          34.200
 09  5 11  0 24 30.0000000  0 12G25G31G 6G 7G19G32G23G16G11G 3G20G13
 119676589.31647  93254459.28144  22773689.8344   22773682.5814
        43.900          27.800
 129018650.90047 100533982.22943  24551428.8424   24551420.3004
        43.400          23.600
 109183629.44948  85078167.11346  20776938.1544   20776929.4954
        49.800          38.900
 127080613.93347  99023812.27543  24182634.9174   24182626.1414
        42.000          22.900
 110641331.20348  86214038.91746  21054322.5624   21054312.4384
        48.300          39.200
 128499790.05546 100129659.03143  24452707.4544   24452701.2564
        40.400          19.300
 105988859.35348  82588694.96946  20169002.9854   20168991.8644
        49.500          39.900
 117425597.20047  91500417.99244  22345330.3304   22345320.3814
        46.800          28.700
 135894155.80155                  25859798.0274
        35.200
 104875031.42248  81720827.89246  19957032.9754   19957024.3744
        49.800          39.900
 128103952.10946  99821226.17843  24377379.3144   24377374.9924
        41.400          20.400
 113936464.52747  88781636.91645  21681384.3604   21681375.5844
        46.900          33.400
 09  5 11  0 25  0.0000000  0 12G25G31G 6G 7G19G32G23G16G11G 3G20G13
 119610918.17747  93203287.00944  22761193.5894   22761185.9264
        44.100          29.700
 129076919.40247 100579386.31443  24562516.8344   24562508.9374
        42.100          22.300
 109207292.45548  85096605.83946  20781440.8924   20781432.3504
        48.900          38.500
 127004449.87747  98964463.64644  24168140.8784   24168132.6294
        42.600          25.300
 110570648.87348  86158961.82546  21040872.5194   21040861.9854
        48.100          38.900
 128570369.47946 100184655.91843  24466136.3124   24466132.6354
        38.900          19.900
 105983895.19648  82584826.79446  20168058.3544   20168047.3504
        50.600          40.900
 117495659.73747  91555012.18044  22358662.9324   22358653.0424
        47.000          28.800
 135822455.27645 105835657.28352  25846154.2854   25846148.3814
        33.400          14.800
 104862044.95148  81710708.57646  19954561.6114   19954553.4794
        50.300          39.600
 128170080.81246  99872754.96243  24389963.1094   24389957.9664
        41.600          21.100
 113866521.37347  88727135.77545  21668074.5614   21668065.7264
        46.700          34.000
 09  5 11  0 25 30.0000000  0 11G25G31G 6G 7G19G32G23G16G 3G20G13
 119545230.05847  93152101.46244  22748692.6794   22748684.6064
        43.700          27.400
 129135358.08846 100624922.99843  24573636.3434   24573629.0904
        40.900          22.500
 109231488.87248  85115460.20646  20786044.9804   20786036.9074
        50.200          38.800
 126928201.79847  98905049.61344  24153631.5784   24153624.4434
        43.000          26.200
 110500409.73248  86104230.06146  21027505.2194   21027495.2114
        48.600          38.800
 128640793.01646 100239531.42242  24479537.3804   24479533.4094
        37.900          17.400
 105979548.27448  82581439.59146  20167231.0164   20167220.2474
        49.200          40.500
 117565742.51247  91609622.12144  22371999.1444   22371990.0164
        46.600          28.700
 104849669.71548  81701065.56046  19952206.6684   19952198.3604
        50.500          39.800
 128236142.41646  99924231.45943  24402534.5384   24402529.5134
        41.800          21.100
 113797018.37347  88672977.62045  21654849.0354   21654839.8484
        47.900          34.300
 09  5 11  0 26  0.0000000  0 12G25G31G 6G 7G19G32G23G16G11G 3G20G13
 119479529.46247  93100906.23344  22736191.1994   22736182.7744
        42.200          29.600
 129193970.70746 100670595.23643  24584791.4594   24584783.9724
        40.200          22.300
 109256220.91148  85134731.93046  20790751.4434   20790743.2534
        50.100          38.300
 126851873.60547  98845573.17944  24139105.7854   24139100.5834
        43.100          27.100
 110430619.58648  86049848.17846  21014225.4184   21014214.7664
        48.500          39.300
 128711061.87746 100294286.46642  24492910.7514   24492904.7294
        39.100          17.400
 105975822.23948  82578536.19946  20166521.9774   20166511.0324
        49.200          40.700
 117635847.27947  91664249.21244  22385340.2214   22385330.0384
        47.700          28.600
                                  25818696.7844
        37.300
 104837909.46348  81691901.74246  19949968.9504   19949960.5844
        50.200          40.100
 128302137.90747  99975656.43843  24415093.1564   24415088.1894
        42.100          20.100
 113727961.31447  88619166.93645  21641707.7474   21641698.9704
        47.800          34.900
 09  5 11  0 26 30.0000000  0 12G25G31G 6G 7G19G32G23G16G11G 3G20G13
 119413816.10547  93049701.04644  22723685.4534   22723677.4394
        43.800          28.200
 129252756.38546 100716402.25144  24595977.5444   24595970.3504
        41.600          25.000
 109281486.13848  85154419.13146  20795558.9774   20795550.9634
        49.300          38.200
 126775464.48347  98786033.68744  24124566.7144   24124559.8724
        43.400          26.100
 110361279.50447  85995816.99446  21001030.4644   21001019.6954
        47.600          38.600
 128781172.42245 100348918.01342  24506248.8684   24506247.1844
        34.600          17.400
 105972716.21348  82576115.93346  20165930.9164   20165920.0884
        49.400          40.300
 117705971.22347  91718891.25644  22398684.4824   22398674.1234
        47.400          27.800
 135605587.71655 105666664.24752  25804885.4054   25804878.5634
        33.300          14.800
 104826763.06548  81683216.26146  19947847.7574   19947839.2734
        49.000          39.500
 128368063.42246 100027026.85143  24427638.7354   24427633.9444
        41.300          21.300
 113659351.75647  88565704.96045  21628651.5164   21628642.6224
        47.000          34.300
 09  5 11  0 27  0.0000000  0 12G25G31G 6G 7G19G32G23G16G11G 3G20G13
 119348091.39047  92998486.96644  22711179.7434   22711169.4424
        42.500          28.700
 129311715.28546 100762344.25844  24607197.2014   24607189.5384
        40.500          24.300
 109307283.66548  85174521.12646  20800467.9414   20800459.4584
        48.800          38.000
 126698975.31647  98726431.76144  24110011.2054   24110003.4844
        43.600          25.900
 110292391.92248  85942138.41346  20987921.2934   20987910.6994
        48.300          38.100
 128851122.64546 100403424.70643  24519562.6314   24519558.2504
        39.400          19.300
 105970230.80047  82574179.24946  20165458.0114   20165447.0664
        47.900          40.200
 117776113.29447  91773547.41344  22412031.3634   22412022.3534
        47.800          29.700
 135532716.80944                  25791017.9464
        26.800
 104816230.79848  81675009.31546  19945843.6304   19945834.5024
        49.700          39.600
 128433916.58347 100078340.95643  24440170.5804   24440165.6134
        43.100          21.700
 113591192.16247  88512593.61045  21615680.7874   21615672.5974
        46.100          34.100
 09  5 11  0 27 30.0000000  0 12G25G31G 6G 7G19G32G23G16G11G 3G20G13
 119282356.09147  92947264.69744  22698669.6474   22698662.3364
        42.900          28.900
 129370847.70946 100808421.50743  24618449.4184   24618441.2864
        39.100          21.800
 109333612.14348  85195036.83246  20805478.2524   20805469.7694
        48.800          37.700
 126622406.44747  98666767.70944  24095440.6124   24095432.1284
        42.500          25.100
 110223959.07548  85888814.16746  20974898.8284   20974888.2344
        48.900          37.900
 128920910.14545 100457804.56542  24532838.5614   24532838.6354
        31.200          14.800
 105968365.98248  82572726.14446  20165103.2904   20165092.1694
        49.000          39.600
 117846271.82347  91828216.40644  22425382.1274   22425372.9994
        46.900          28.900
 135459556.26245                  25777096.2454
        32.600
 104806312.67148  81667280.92446  19943956.2194   19943947.6184
        49.300          39.800
 128499694.42247 100129596.36443  24452687.1194   24452682.0934
        42.600          20.900
 113523485.07447  88459834.86445  21602797.2834   21602787.5104
        47.500          34.900
 09  5 11  0 28  0.0000000  0 12G25G31G 6G 7G19G32G23G16G11G 3G20G13
 119216612.83147  92896036.23644  22686158.9554   22686151.0584
        42.900          28.700
 129430155.51346 100854635.42043  24629735.4804   24629727.4074
        39.900          22.800
 109360471.88348  85215966.51846  20810589.4484   20810581.1994
        49.200          37.900
 126545759.73746  98607043.10944  24080853.5454   24080847.9924
        41.300          26.300
 110155984.76848  85835847.20746  20961963.4794   20961953.3544
        48.100          37.700
 128990534.18546 100512057.07642  24546090.2914   24546088.6654
        37.100          14.800
 105967123.52048  82571758.00746  20164866.9224   20164856.0944
        49.400          39.800
 117916446.68047  91882898.11744  22438736.4444   22438726.5544
        47.500          29.100
 135386109.46046                  25763119.5474
        37.400
 104797010.05548  81660032.14746  19942186.0054   19942176.8774
        50.100          39.600
 128565396.18946 100180792.52143  24465189.4314   24465184.9334
        41.800          20.100
 113456234.43948  88407431.78745  21590000.3274   21589991.0814
        49.000          34.600
 09  5 11  0 28 30.0000000  0 12G25G31G 6G 7G19G32G23G16G11G 3G20G13
 119150860.57847  92844800.74044  22673648.0614   22673638.4644
        43.500          28.400
 129489636.75046 100900984.47743  24641052.7204   24641046.4644
        39.700          22.900
 109387859.39848  85237307.45446  20815800.8944   20815793.2904
        48.000          38.500
 126469033.82547  98547256.80644  24066255.2124   24066248.1354
        44.300          29.700
 110088469.24347  85783237.76246  20949115.5054   20949105.1474
        47.300          37.300
 129059990.22446 100566178.80543  24559308.2844   24559305.3104
        39.000          18.300
 105966501.80248  82571273.55446  20164748.3074   20164737.3044
        48.600          40.300
 117986634.33347  91937589.78844  22452092.2244   22452082.2754
        47.900          29.700
 135312374.56145                  25749088.4884
        33.000
 104788320.92548  81653261.41646  19940532.7524   19940523.9174
        49.500          39.800
 128631016.34847 100231925.02643  24477678.3834   24477673.0064
        43.600          22.300
 113389440.63748  88355384.68245  21577289.2024   21577279.9564
        48.700          34.600
 09  5 11  0 29  0.0000000  0 12G25G31G 6G 7G19G32G23G16G11G 3G20G13
 119085101.20047  92793559.68444  22661133.4464   22661125.1984
        42.600          29.100
 129549292.30746 100947469.32344  24652406.6174   24652398.4854
        40.800          24.200
 109415774.59648  85259059.56946  20821113.4904   20821105.2414
        48.900          38.300
 126392230.15047  98487409.86544  24051640.4184   24051632.9314
        45.500          29.400
 110021416.14448  85730988.64046  20936355.9444   20936345.5854
        48.700          37.600
 129129276.87645 100620168.45542  24572491.8044   24572489.7094
        32.600          17.800
 105966501.44348  82571273.28446  20164748.1234   20164737.2954
        49.800          39.800
 118056834.00648  91992290.86144  22465450.6924   22465441.5064
        48.100          29.400
 135238354.34445                  25735002.8044
        30.100
 104780246.24848  81646969.47446  19938996.0414   19938987.3814
        49.800          40.100
 128696553.81447 100282993.10443  24490148.7354   24490144.5894
        42.000          22.800
 113323106.80048  88303696.00745  21564666.5294   21564657.1674
        48.800          34.600
 09  5 11  0 29 30.0000000  0 12G25G31G 6G 7G19G32G23G16G11G 3G20G13
 119019337.56347  92742315.31444  22648618.6674   22648610.3594
        44.400          28.500
 129609124.17346 100994091.62444  24663792.6574   24663784.9944
        41.800          25.500
 109444217.56748  85281222.93846  20826525.8614   20826517.4954
        48.900          37.900
 126315351.09247  98427504.17344  24037009.4474   24037002.1364
        43.000          25.800
 109954828.66948  85679102.33546  20923684.5284   20923674.4034
        48.900          38.100
 129198427.82455 100674095.68952  24585643.3294   24585642.4654
        30.700          15.600
 105967124.50648  82571758.79146  20164867.3474   20164856.1094
        48.500          40.200
 118127046.12847  92047001.59744  22478812.0964   22478802.4404
        46.800          29.300
                                  25720859.7744
        30.100
 104772787.43148  81641157.43046  19937576.5124   19937568.0884
        50.200          39.300
 128762006.94746 100333995.51643  24502603.2944   24502599.2064
        41.400          22.000
 113257236.88447  88252368.81545  21552131.2854   21552121.9814
        47.900          34.500
 09  5 11  0 30  0.0000000  0 12G25G31G 6G 7G19G32G23G16G11G 3G20G13
 118953568.46047  92691066.71844  22636103.6424   22636095.7454
        46.300          28.500
 129669130.52546 101040849.85943  24675210.5754   24675202.5614
        38.700          22.200
 109473185.01948  85303794.99146  20832037.8634   20832029.6734
        48.300          37.500
 126238394.82047  98367538.34444  24022364.7364   24022356.9564
        43.300          25.400
 109888706.85448  85627578.90946  20911102.3204   20911091.4934
        50.000          38.000
 129267370.32446 100727817.09142  24598764.6764   24598762.1704
        36.600          17.400
 105968368.52547  82572728.15146  20165103.5234   20165092.5784
        47.800          40.000
 118197267.25148  92101719.36844  22492175.0334   22492165.5534
        48.300          29.800
 135089463.77756                  25706670.2594
        38.100
 104765942.50048  81635823.72746  19936274.0994   19936265.3814
        50.200          39.800
 128827371.44247 100384928.90543  24515043.8134   24515036.1514
        43.300          21.300
 113191831.59748  88201403.69445  21539685.4204   21539676.1164
        48.800          34.400
 09  5 11  0 30 30.0000000  0 12G25G31G 6G 7G19G32G23G16G11G 3G20G13
 118887795.96547  92639815.45944  22623587.5734   22623579.5584
        47.000          29.400
 129729312.32946 101087744.82243  24686662.2404   24686654.3424
        39.700          22.200
 109502676.51648  85326775.39346  20837650.1954   20837641.4194
        48.500          37.900
 126161362.77847  98307513.45444  24007707.6014   24007699.2354
        44.100          28.000
 109823053.97548  85576420.86346  20898608.8534   20898598.0254
        48.400          37.400
 129336137.10146 100781401.71742  24611850.9044   24611846.3474
        39.800          16.300
 105970234.88448  82574182.45346  20165458.8244   20165447.7624
        48.000          40.100
 118267496.74947  92156443.65144  22505539.0114   22505529.4734
        47.700          29.300
 135014595.84046                  25692423.9924
        38.300
 104759711.98648  81630968.79546  19935088.2284   19935079.5684
        49.500          39.800
 128892645.60746 100435791.90843  24527462.9334   24527457.9084
        38.800          19.600
 113126894.12147  88150803.08245  21527328.3134   21527318.8924
        47.800          35.300
 09  5 11  0 31  0.0000000  0 12G25G31G 6G 7G19G32G23G16G11G 3G20G13
 118822021.71147  92588562.81444  22611071.3204   22611062.0164
        47.200          29.400
 129789670.41046 101134777.14243  24698148.1314   24698141.5234
        39.800          23.800
 109532691.07548  85350163.37946  20843361.8864   20843353.1684
        48.500          37.800
 126084255.98947  98247430.34645  23993034.2694   23993027.6024
        43.800          30.700
 109757872.86647  85525630.43646  20886205.0174   20886194.1894
        47.300          38.300
 129404726.61445 100834848.19142  24624901.0144   24624898.9194
        35.500          16.900
 105972724.23048  82576122.21546  20165932.5354   20165921.2394
        49.400          40.100
 118337733.40947  92211173.53044  22518904.2424   22518895.2314
        47.500          29.800
 134939448.09345 105147595.23252  25678121.4114   25678116.6794
        35.300          17.800
 104754096.40948  81626593.04446  19934019.5984   19934010.7044
        50.000          39.800
 128957827.05646 100486582.56543  24539867.4384   24539862.9994
        39.900          20.400
 113062427.02848  88100569.01545  21515060.6314   21515051.5034
        48.000          34.300
 09  5 11  0 31 30.0000000  0 12G25G31G 6G 7G19G32G23G16G11G 3G20G13
 118756247.52947  92537310.24744  22598554.1464   22598546.3074
        43.200          29.300
 129850205.78646 101181947.60543  24709667.7874   24709660.4754
        39.800          22.800
 109563228.18848  85373958.55246  20849172.4684   20849164.1614
        48.800          37.900
 126007075.95947  98187290.17844  23978346.0034   23978340.2744
        43.200          28.900
 109693166.59948  85475210.02546  20873891.7464   20873881.3284
        48.500          38.700
 129473136.48455                  24637918.6854
        32.400
 105975837.14648  82578547.86246  20166524.7394   20166513.8534
        49.300          39.900
 118407976.78647  92265908.62645  22532271.7464   22532261.5634
        47.800          30.500
 134864022.63745                  25663767.8394
        34.100
 104749096.33848  81622696.91046  19933067.9614   19933059.4194
        50.500          39.800
 129022914.44846 100537300.00243  24552253.4864   24552248.6374
        39.800          22.000
 112998433.96048  88050704.31945  21502883.1054   21502873.9774
        48.300          35.200
 09  5 11  0 32  0.0000000  0 12G25G31G 6G 7G19G32G23G16G11G 3G20G13
 118690472.94047  92486057.35445  22586038.0914   22586029.7254
        44.300          30.400
 129910916.93546 101229255.04143  24721221.4334   24721213.3604
        40.200          22.300
 109594284.80448  85398158.51446  20855082.4234   20855074.1154
        49.000          37.300
 125929821.69846  98127092.13544  23963645.0044   23963637.8104
        41.100          25.800
 109628935.72648  85425160.04346  20861669.4894   20861658.8374
        50.000          39.100
 129541364.56046 100941312.01653  24650904.1494   24650899.4164
        36.000          19.900
 105979571.90248  82581458.07346  20167235.3214   20167224.6694
        50.900          40.200
 118478223.82647  92320646.59345  22545639.1134   22545629.2234
        47.900          30.600
 134788318.94146                  25649364.2284
        38.100
 104744709.94048  81619278.96046  19932233.5414   19932224.9994
        49.600          40.300
 129087903.34846 100587940.68043  24564620.0274   24564615.5294
        40.400          22.300
 112934915.17448  88001209.19345  21490796.4544   21490786.7404
        48.000          34.900
 09  5 11  0 32 30.0000000  0 12G25G31G 6G 7G19G32G23G16G11G 3G20G13
 118624699.68347  92434805.49245  22573522.1574   22573513.6744
        43.900          30.200
 129971804.41546 101276699.88743  24732807.5714   24732800.3194
        39.300          22.900
 109625860.20248  85422762.74146  20861091.1274   20861082.9364
        48.700          37.600
 125852494.39347  98066837.12244  23948930.6524   23948921.7584
        43.200          27.400
 109565182.87347  85375482.53746  20849537.7504   20849526.8644
        47.800          39.300
 129609408.36646 100994333.16343  24663853.0364   24663848.1864
        37.700          20.100
 105983929.26348  82584853.42446  20168064.9534   20168053.8324
        50.200          40.000
 118548473.80747  92375386.84544  22559007.4794   22558997.8824
        47.500          29.800
 134712339.31545                  25634905.7534
        35.800
 104740937.17148  81616339.16246  19931515.3814   19931506.9564
        48.300          40.300
 129152791.28546 100638502.69443  24576967.6464   24576963.3244
        39.200          20.100
 112871873.79448  87952086.07445  21478799.4594   21478789.8624
        48.800          35.000
 09  5 11  0 33  0.0000000  0 12G25G31G 6G 7G19G32G23G16G11G 3G20G13
 118558930.08747  92383556.52044  22561006.4784   22560998.7564
        45.200          29.700
 130032869.76446 101324283.29744  24744428.0664   24744420.5794
        40.100          24.100
 109657954.03948  85447770.94046  20867198.5774   20867189.8594
        48.200          36.800
 125775095.97647  98006526.72144  23934201.6464   23934194.9804
        43.200          28.500
 109501911.37748  85326180.12846  20837497.4994   20837486.9644
        49.600          38.800
 129677267.03745 101047210.13342  24676764.8604   24676761.2414
        34.800          14.800
 105988910.24048  82588734.70346  20169012.5324   20169001.4114
        50.200          40.500
 118618726.59447  92430129.27844  22572375.8334   22572366.6464
        46.900          29.800
 134636086.48346                  25620393.6024
        36.900
 104737779.36948  81613878.55046  19930914.5004   19930905.8404
        49.300          39.700
 129217577.06346 100688985.13542  24589295.7894   24589290.5294
        39.900          16.900
 112809313.28348  87903337.65345  21466893.8964   21466885.4124
        48.000          34.000
 09  5 11  0 33 30.0000000  0 12G25G31G 6G 7G19G32G23G16G11G 3G20G13
 118493164.31247  92332310.49745  22548491.5514   22548482.7164
        46.500          30.500
 130094112.02546 101372004.58443  24756081.8824   24756073.6334
        38.300          23.200
 109690564.01247  85473181.31646  20873403.9674   20873394.8984
        47.500          37.300
 125697625.65446  97946160.32544  23919459.2314   23919453.7374
        41.400          28.500
 109439122.27448  85277253.59546  20825549.3184   20825538.1974
        49.800          38.900
 129744937.32145 101099940.39642  24689640.7304   24689637.9324
        33.400          15.600
 105994513.64848  82593101.00446  20170078.7594   20170067.8734
        49.900          40.100
 118688979.61747  92484871.90044  22585744.3124   22585734.7154
        47.500          29.800
 134559560.19845                  25605832.3884
        34.400
 104735235.53848  81611896.37446  19930430.5504   19930421.8904
        50.000          40.000
 129282257.08146 100739385.24543  24601604.4294   24601599.1694
        40.600          20.400
 112747235.25548  87854965.19145  21455080.9854   21455072.5024
        49.800          35.000
 09  5 11  0 34  0.0000000  0 12G25G31G 6G 7G19G32G23G16G11G 3G20G13
 118427404.41947  92281069.07145  22535978.2664   22535969.7834
        46.800          31.400
 130155532.30446 101419864.56543  24767769.9934   24767761.0994
        38.700          23.900
 109723689.35047  85498993.27046  20879707.8584   20879698.7894
        47.800          37.100
 125620085.22047  97885739.32244  23904703.3704   23904697.8764
        42.600          29.000
 109376818.70548  85228705.40246  20813692.5904   20813682.3484
        49.800          39.100
 129812417.92046 101152522.70543  24702483.9874   24702479.3134
        37.500          20.400
 106000740.29048  82597952.93346  20171263.7544   20171252.9274
        49.400          40.100
 118759232.48547  92539614.39245  22599112.7744   22599104.0574
        45.500          30.400
 134482762.56045                  25591217.5004
        33.100
 104733306.27148  81610393.07346  19930063.4884   19930054.7124
        49.300          40.800
 129346830.21446 100789701.95643  24613891.7984   24613887.4764
        38.300          21.300
 112685642.62748  87806970.98345  21443361.1364   21443351.7744
        48.900          34.900
 09  5 11  0 34 30.0000000  0 12G25G31G 6G 7G19G32G23G16G11G 3G20G13
 118361650.45747  92229832.24245  22523465.1124   22523457.4504
        46.900          30.600
 130217130.15446 101467862.94043  24779492.0314   24779484.2514
        37.600          23.000
 109757327.35047  85525204.70846  20886108.0624   20886100.2244
        47.900          37.100
 125542474.56247  97825263.51344  23889936.6744   23889927.3704
        44.600          27.800
 109315001.42748  85180536.13446  20801929.1084   20801919.0424
        49.400          39.200
 129879705.46146 101204954.65443  24715289.9074   24715283.2994
        39.600          21.800
 106007588.92648  82603289.54246  20172567.6094   20172556.3714
        51.000          40.300
 118829482.66747  92594354.79345  22612481.2014   22612471.7804
        46.100          31.300
 134405694.35345                  25576550.1304
        32.300
 104731989.46948  81609367.02146  19929812.8154   19929804.5074
        49.800          40.300
 129411292.36446 100839932.21243  24626158.1694   24626154.6094
        37.300          19.900
 112624536.47548  87759355.82545  21431732.7644   21431723.5194
        50.000          34.900
 09  5 11  0 35  0.0000000  0 12G25G31G 6G 7G19G32G23G16G11G 3G20G13
 118295905.53847  92178602.47045  22510954.3574   22510946.2254
        47.800          30.900
 130278906.59946 101516000.46943  24791247.1924   24791239.0604
        37.000          21.300
 109791478.81648  85551816.25046  20892607.5574   20892599.1914
        48.900          37.600
 125464796.19347  97764734.89444  23875153.1224   23875144.8734
        42.300          26.000
 109253674.75548  85132749.16246  20790259.6264   20790248.7984
        49.600          39.600
 129946799.96845 101257236.15542  24728054.9044   24728051.5194
        31.000          16.900
 106015061.43548  82609112.28246  20173989.3074   20173977.8944
        50.600          41.200
 118899730.74547  92649093.55545  22625848.0904   22625839.4304
        46.300          30.000
 134328358.69246                  25561835.7934
        37.100
 104731287.29248  81608819.88646  19929678.7794   19929670.6484
        50.200          39.800
 129475642.87446 100890075.39742  24638404.7114   24638400.2134
        39.800          17.800
 112563921.18748  87712123.16645  21420198.0094   21420188.4714
        50.400          35.300
 09  5 11  0 35 30.0000000  0 12G25G31G 6G 7G19G32G23G16G11G 3G20G13
 118230169.33148  92127379.49345  22498445.3904   22498436.8484
        48.300          31.200
 130340860.80846 101564276.48643  24803036.0764   24803028.8824
        36.400          21.500
 109826140.44548  85578825.31546  20899203.0774   20899194.8284
        48.300          36.600
 125387049.01647  97704152.75844  23860358.9654   23860351.7124
        42.200          28.600
 109192839.05147  85085344.74746  20778682.4134   20778672.0554
        47.900          38.800
 130013702.72155 101309365.32252  24740784.9714   24740781.8214
        33.900          16.900
 106023155.95348  82615419.69746  20175529.5354   20175518.5904
        50.800          40.400
 118969974.11247  92703828.64845  22639216.3074   22639206.2414
        46.400          31.400
 134250755.61546 104610953.33252  25547067.8534   25547063.2374
        37.100          17.400
 104731197.41848  81608749.87146  19929661.5024   19929653.4874
        48.800          39.900
 129539877.81846 100940128.66143  24650628.8004   24650622.9544
        41.800          18.600
 112503797.45948  87665273.54045  21408756.7564   21408747.8044
        48.800          34.900
 09  5 11  0 36  0.0000000  0 12G25G31G 6G 7G19G32G23G16G11G 3G20G13
 118164443.08448  92076164.26244  22485937.8364   22485928.9424
        48.500          29.900
 130402992.55346 101612690.89343  24814859.9304   24814851.9744
        36.900          20.400
 109861310.67748  85606230.69646  20905896.1874   20905887.5284
        48.400          37.100
 125309233.77547  97643517.55544  23845552.3974   23845544.3244
        43.000          29.300
 109132496.19248  85038324.38846  20767199.2824   20767189.3924
        49.200          39.100
 130080401.45746 101361338.56842  24753477.6424   24753473.6134
        37.300          16.900
 106031872.22148  82622211.60546  20177188.4184   20177176.9454
        50.500          40.400
 119040211.34147  92758558.95645  22652581.2494   22652572.1214
        45.800          30.900
 134172886.34345 104550276.08842  25532248.7544   25532244.7844
        31.900          16.300
 104731719.70048  81609156.87646  19929761.4364   19929753.0124
        49.200          40.100
 129603994.48246 100990089.78543  24662829.4084   24662824.2064
        39.400          19.000
 112444167.38248  87618808.58445  21397409.4054   21397400.4534
        49.900          34.900
 09  5 11  0 36 30.0000000  0 12G25G31G 6G 7G19G32G23G16G11G 3G20G13
 118098729.09348  92024958.58645  22473432.8994   22473424.6504
        48.700          31.400
 130465303.63546 101661244.98643  24826717.4624   24826709.0964
        38.000          22.000
 109896989.16348  85634032.12146  20912685.3144   20912677.0654
        48.800          37.300
 125231352.47146  97582830.84144  23830729.6464   23830723.8594
        40.900          26.100
 109072649.38147  84991690.54546  20755811.0404   20755800.7404
        47.000          39.600
 130146900.23046 101413155.92243  24766131.8084   24766126.7834
        38.800          19.300
 106041210.92248  82629488.51846  20178965.0494   20178954.2214
        50.900          40.600
 119110442.12047  92813284.24945  22665945.6084   22665936.8324
        46.200          30.400
 134094753.21245 104489393.27442  25517381.1624   25517376.9584
        33.000          16.300
 104732854.53248  81610041.18346  19929977.6754   19929968.4304
        49.800          40.500
 129667991.63446 101039957.73343  24675007.2824   24675002.2564
        37.100          20.100
 112385034.54447  87572731.07345  21386157.0084   21386147.8214
        47.700          35.500
 09  5 11  0 37  0.0000000  0 12G25G31G 6G 7G19G32G23G16G11G 3G20G13
 118033028.74848  91973763.54445  22460930.8744   22460921.9214
        49.400          32.100
 130527793.88546 101709938.70643  24838608.6034   24838600.4124
        37.200          22.500
 109933174.31548  85662228.36146  20919571.3704   20919562.8864
        48.600          37.100
 125153405.50746  97522092.97944  23815897.0494   23815890.0904
        40.800          26.800
 109013300.55648  84945444.75446  20744517.2434   20744506.8844
        48.000          39.100
 130213197.07546 101464815.89543  24778747.5444   24778743.6914
        36.000          18.600
 106051172.06248  82637250.45246  20180860.8114   20180849.5144
        51.200          40.600
 119180665.34547  92868003.63645  22679308.9584   22679299.5964
        45.500          30.600
 134016357.68245 104428305.89842  25502463.6324   25502458.6654
        35.500          14.800
 104734601.62348  81611402.57846  19930309.9884   19930301.0944
        49.100          40.300
 129731866.87746 101089730.60043  24687161.5174   24687157.4294
        36.600          18.600
 112326401.17248  87527042.75945  21374999.1864   21374990.1754
        48.300          35.300
 09  5 11  0 37 30.0000000  0 12G25G31G 6G 7G19G32G23G16G11G 3G20G13
 117967342.76247  91922579.66845  22448431.3104   22448422.7094
        47.500          32.300
 130590462.91946 101758771.72343  24850534.7404   24850526.7254
        37.200          22.000
 109969864.12348  85690817.81346  20926553.2574   20926544.2464
        48.000          36.700
 125075393.80847  97461304.63944  23801052.1124   23801045.3294
        42.500          26.700
 108954451.62847  84899588.48246  20733319.0204   20733308.0174
        47.600          38.900
 130279289.31645 101516316.46743  24791324.3434   24791320.3734
        33.600          18.600
 106061754.81148  82645496.75646  20182874.7434   20182863.6814
        49.500          40.800
 119250879.19447  92922715.73645  22692669.9224   22692661.2044
        45.100          31.000
 133937700.77646 104367014.87942  25487494.6634   25487489.9314
        37.800          16.900
 104736960.03148  81613240.31546  19930758.5524   19930749.9514
        48.100          40.200
 129795617.16546 101139406.16043  24699294.4914   24699288.8214
        38.300          20.100
 112268268.90648  87481744.91745  21363936.5434   21363928.2944
        49.400          35.700
 09  5 11  0 38  0.0000000  0 12G25G31G 6G 7G19G32G23G16G11G 3G20G13
 117901673.29248  91871408.70145  22435934.3134   22435926.0644
        48.800          32.100
 130653311.74746 101807744.85543  24862494.8934   24862485.8824
        37.500          21.700
 110007057.79348  85719799.91546  20933630.9094   20933622.3674
        48.800          37.000
 124997318.52847  97400466.73444  23786195.5794   23786187.8574
        43.300          27.100
 108896105.23548  84854123.80146  20722215.7284   20722205.5454
        48.800          38.900
 130345176.01745 101567656.96042  24803861.5674   24803858.5344
        33.200          16.900
 106072959.61948  82654227.78246  20185007.0604   20184995.8224
        51.200          40.900
 119321083.33647  92977420.25945  22706029.3954   22706020.8534
        44.200          30.900
 133858785.36446 104305522.47642  25472477.1694   25472473.0814
        36.200          17.800
 104739930.25648  81615554.79246  19931324.0344   19931315.4334
        49.400          40.600
 129859240.69846 101188982.91343  24711401.4754   24711395.2774
        40.100          19.300
 112210640.92348  87436840.03045  21352970.5264   21352961.7504
        49.500          35.500
 09  5 11  0 38 30.0000000  0 12G25G31G 6G 7G19G32G23G16G11G 3G20G13
 117836020.92348  91820251.03545  22423441.3874   22423432.6694
        49.400          33.300
 130716339.85946 101856857.70643  24874487.8244   24874479.7514
        37.500          20.600
 110044753.09848  85749172.88246  20940804.1694   20940795.5104
        48.600          37.500
 124919179.91047  97339579.53144  23771326.5244   23771318.8614
        42.300          25.600
 108838262.64948  84809051.70046  20711208.8804   20711198.0524
        49.000          39.100
 130410854.22345 101618834.81742  24816360.5374   24816356.7434
        33.700          17.800
 106084785.58148  82663442.82846  20187257.4574   20187246.2784
        51.900          40.800
 119391276.08947  93032115.91845  22719386.7984   22719378.0224
        44.800          31.900
 133779611.45146 104243828.67743  25457410.6694   25457406.5234
        36.500          18.600
 104743511.19748  81618345.15846  19932005.2704   19931996.9044
        49.900          40.600
 129922734.47946 101238458.69542  24723483.0764   24723478.3434
        36.400          17.800
 112153518.55648  87392329.12445  21342100.8344   21342091.8824
        49.500          35.800
 09  5 11  0 39  0.0000000  0 12G25G31G 6G 7G19G32G23G16G11G 3G20G13
 117770387.25348  91769107.96145  22410952.1034   22410943.4444
        49.500          32.700
 130779547.19846 101906110.21243  24886515.6304   24886507.4984
        37.900          21.100
 110082948.69748  85778935.70746  20948072.2744   20948063.7914
        48.200          38.300
 124840979.11747  97278643.92444  23756445.6514   23756438.2234
        42.600          29.100
 108780926.13048  84764373.93246  20700297.5944   20700287.2354
        48.800          39.200
 130476322.31945 101669849.11442  24828818.7394   24828814.4754
        33.200          15.600
 106097232.76348  82673141.94746  20189625.8124   20189614.8084
        51.400          40.800
 119461456.24847  93086801.76145  22732741.9224   22732733.3804
        44.900          31.300
 133700181.28946 104181935.18543  25442298.0834   25442291.5924
        38.500          18.600
 104747702.15148  81621610.86346  19932802.6394   19932794.2154
        49.900          40.700
 129986096.47946 101287831.73942  24735539.9334   24735535.3184
        36.900          17.800
 112096904.56848  87348214.34645  21331326.9624   21331318.2444
        49.500          35.300
 09  5 11  0 39 30.0000000  0 12G25G31G 6G 7G19G32G23G16G11G 3G20G13
 117704772.96148  91717979.97245  22398465.8834   22398456.9314
        48.500          33.000
 130842933.40746 101955502.03843  24898576.7534   24898570.3214
        37.100          22.000
 110121642.26747  85809086.55646  20955434.9934   20955426.9204
        47.200          38.000
 124762716.27446  97217659.91744  23741552.2824   23741544.9714
        41.100          28.100
 108724096.77847  84720091.35646  20689483.6244   20689473.4994
        47.500          39.600
                                  24841233.8884   24841232.2034
        31.500          16.900
 106110299.71348  82683323.99546  20192112.1034   20192101.0414
        50.800          40.300
 119531621.98847  93141476.36645  22746093.6064   22746084.7714
        44.600          30.700
 133620495.49046 104119842.40043  25427132.4664   25427127.2064
        38.100          18.600
 104752502.06948  81625351.07546  19933716.1954   19933707.5954
        48.400          40.300
 130049323.59146 101337099.58843  24747573.1874   24747566.9904
        39.900          18.600
 112040800.21748  87304496.69645  21320650.8214   21320641.8104
        48.600          35.700
 09  5 11  0 40  0.0000000  0 12G25G31G 6G 7G19G32G23G16G11G 3G20G13
 117639180.68748  91666869.15045  22385983.5164   22385975.0914
        48.900          32.100
 130906500.14246 102005034.59343  24910675.9254   24910665.9184
        38.900          22.200
 110160833.55248  85839625.22446  20962893.5424   20962884.8244
        49.100          37.600
 124684393.35246  97156629.09043  23726646.6914   23726639.0874
        39.200          22.600
 108667778.04648  84676206.66746  20678766.8664   20678755.8634
        48.300          40.000
 130606619.07456 101771374.28753  24853613.2294   24853609.1414
        36.800          18.300
 106123987.18648  82693989.56346  20194716.9944   20194705.9324
        51.400          40.600
 119601773.49947  93196139.86545  22759443.3754   22759433.8964
        45.300          30.400
 133540556.89545 104057552.53042  25411920.4214   25411915.2794
        35.000          16.900
 104757911.66648  81629566.36246  19934745.0374   19934737.1984
        49.300          40.600
 130112414.64346 101386261.47543  24759578.5604   24759572.0694
        38.800          19.300
 111985209.11847  87261178.99145  21310072.5324   21310063.2864
        47.800          35.700
 09  5 11  0 40 30.0000000  0 12G25G31G 6G 7G19G32G23G16G11G 3G20G13
 117573611.26148  91615776.13245  22373506.1604   22373497.0914
        49.400          32.200
 130970246.91346 102054707.46543  24922805.0464   24922796.3284
        36.700          21.300
 110200520.20948  85870549.90846  20970445.4174   20970436.7584
        48.800          38.000
 124606010.72046  97095551.76943  23711731.2684   23711722.0814
        40.200          22.900
 108611971.24947  84632720.89946  20668146.8924   20668136.2994
        47.700          39.800
 130671444.74945 101821887.90142  24865948.2824   24865945.2504
        35.900          16.900
 106138294.47748  82705138.11546  20197439.8744   20197428.5194
        51.900          41.000
 119671909.09347  93250790.99145  22772789.1464   22772780.3114
        45.100          30.300
                                  25396660.3084   25396651.7664
        33.800          20.400
 104763929.45548  81634255.56646  19935890.7384   19935882.3134
        48.800          40.900
 130175366.51946 101435314.92743  24771556.9444   24771552.2124
        36.900          18.600
 111930132.81848  87218262.41545  21299591.5664   21299582.3204
        48.100          34.700
 09  5 11  0 41  0.0000000  0 12G25G31G 6G 7G19G32G23G16G11G 3G20G13
 117508065.47048  91564701.52645  22361033.1664   22361024.5664
        48.700          32.300
 131034173.04545 102104520.05343  24934966.9964   24934961.0924
        30.700          18.300
 110240700.15448  85901858.97746  20978091.6014   20978082.7084
        49.800          37.500
 124527568.75347  97034428.21244  23696804.9934   23696798.3274
        42.200          27.400
 108556677.63947  84589635.00446  20657624.5504   20657614.4264
        47.400          40.100
 130736051.55145 101872231.16542  24878242.4474   24878238.8864
        34.400          17.400
 106153220.34148  82716768.67046  20200279.9524   20200268.9484
        51.300          40.500
 119742026.97947  93305428.31545  22786131.9874   22786123.7394
        44.900          30.300
 133379919.34956 103932375.32153  25381354.8204   25381347.6274
        37.500          18.600
 104770554.66247  81639418.08546  19937151.0994   19937142.5574
        47.900          40.400
 130238176.61246 101484257.87743  24783510.9194   24783504.7224
        39.200          19.300
 111875572.93048  87175748.23946  21289209.4514   21289200.2064
        48.400          36.400
 09  5 11  0 41 30.0000000  0 12G25G31G 6G 7G19G32G23G16G11G 3G20G13
 117442545.94648  91513647.39945  22348565.6404   22348557.0984
        49.800          32.700
 131098279.93745 102154473.51143  24947166.1204   24947160.8024
        30.700          18.600
 110281372.77748  85933551.93946  20985831.4814   20985822.2954
        49.000          38.600
 124449069.52646  96973260.08344  23681866.9984   23681860.8604
        41.900          27.700
 108501900.36948  84546951.46046  20647200.9164   20647190.3234
        48.300          40.300
 130800439.45645 101922403.75242  24890495.3464   24890492.7834
        32.900          14.800
 106168765.71148  82728881.95046  20203237.9304   20203226.8684
        51.500          39.900
 119812127.51047  93360052.10645  22799471.8464   22799463.5394
        44.700          31.400
 133299230.74846 103869501.18143  25366000.1854   25365993.6954
        39.400          22.200
 104777787.94848  81645054.43246  19938527.3914   19938519.0254
        48.500          39.900
 130300844.19046 101533089.86542  24795436.1074   24795429.3234
        39.200          17.400
 111821532.75148  87133639.03545  21278926.1744   21278916.3434
        48.500          35.600
 09  5 11  0 42  0.0000000  0 12G25G31G 6G 7G19G32G23G16G11G 3G20G13
 117377054.12848  91462614.86645  22336102.7784   22336093.8264
        49.000          32.600
 131162568.04045 102204568.14943  24959400.5464   24959393.8804
        33.900          18.600
 110322536.45848  85965627.55146  20993664.1334   20993655.8844
        48.300          38.500
 124370514.24446  96912048.31744  23666917.8164   23666911.2664
        41.700          26.000
 108447641.22948  84504671.65146  20636875.8114   20636865.4524
        49.300          40.300
 130864589.97355 101972402.67952  24902703.3774   24902702.2794
        30.300          16.300
 106184930.01948  82741477.52846  20206313.5644   20206302.7364
        51.000          40.500
 119882209.06347  93414661.11645  22812808.3784   22812799.3674
        43.400          30.600
 133218295.79446 103806435.03743  25350598.5504   25350591.1214
        38.900          19.300
 104785628.75148  81651164.16246  19940019.5744   19940010.7394
        48.100          40.000
 130363365.95146 101581808.14943  24807331.0014   24807327.0894
        36.500          18.300
 111768014.40548  87091936.45346  21268741.3034   21268732.2344
        48.700          36.300
 09  5 11  0 42 30.0000000  0 12G25G31G 6G 7G19G32G23G16G11G 3G20G13
 117311590.40947  91411604.22245  22323644.8904   22323636.3484
        47.800          32.600
 131227036.19045 102254803.10643  24971669.7724   24971661.5824
        35.500          21.700
 110364188.63748  85998083.81046  21001590.8244   21001581.8134
        48.900          38.300
 124291902.38846  96850792.38244  23651958.2764   23651949.5594
        40.800          24.100
 108393901.35748  84462796.47046  20626649.0664   20626638.5904
        49.100          40.200
 130928532.67145 102022228.34242  24914870.8354   24914870.0894
        31.200          17.800
 106201711.55648  82754554.06746  20209507.1954   20209496.5434
        51.100          40.100
 119952270.13047  93469254.16045  22826140.5934   22826131.3484
        43.700          31.200
 133137114.94745 103743177.24342  25335149.5184   25335143.6144
        35.800          15.600
 104794074.73148  81657745.46946  19941627.0394   19941618.6144
        48.000          40.200
 130425739.06546 101630410.61643  24819202.5554   24819196.2994
        41.300          21.300
 111715019.15448  87050641.47246  21258656.6284   21258647.1494
        48.600          36.300
 09  5 11  0 43  0.0000000  0 12G25G31G 6G 7G19G32G23G16G11G 3G20G13
 117246156.75848  91360617.00645  22311193.4254   22311184.1794
        48.800          32.100
 131291684.37846 102305178.37843  24983971.4794   24983964.1684
        38.600          22.900
 110406328.07748  86030919.76046  21009609.2744   21009600.4394
        49.600          38.500
 124213235.67146  96789493.68344  23636987.9484   23636980.1684
        41.100          24.700
 108340682.98347  84421327.63946  20616522.1234   20616511.3544
        47.400          40.300
 130992249.89746 102071878.32443  24926998.4894   24926994.2264
        37.000          18.600
 106219110.56748  82768111.74546  20212818.1174   20212807.0554
        51.500          40.300
 120022310.04647  93523830.73745  22839468.2994   22839459.4054
        43.200          30.500
 133055690.67545 103679729.83742  25319654.0004   25319649.2094
        35.600          15.600
 104803126.31548  81664798.68246  19943349.5194   19943341.0364
        48.900          40.300
 130487961.71946 101678895.88243  24831041.9834   24831037.0164
        40.300          19.300
 111662549.64348  87009756.16546  21248672.2424   21248663.4074
        48.800          36.500
 09  5 11  0 43 30.0000000  0 12G25G31G 6G 7G19G32G23G16G11G 3G20G13
 117180753.45548  91309653.43845  22298748.0264   22298738.8984
        49.900          32.700
 131356512.10546 102355693.54043  24996308.2844   24996300.6794
        37.400          23.000
 110448951.73148  86064133.01446  21017720.7044   21017711.8104
        49.100          38.200
 124134513.89046  96728152.18044  23622008.6964   23622001.7954
        40.200          27.600
 108287986.42947  84380265.42646  20606494.6384   20606483.6934
        47.500          40.300
 131055738.48246 102121350.23943  24939079.9524   24939074.2234
        37.000          18.300
 106237125.28648  82782149.20046  20216246.0814   20216235.1364
        51.700          40.300
 120092326.42747  93578388.95845  22852792.0924   22852783.3744
        43.600          31.500
 132974023.46546 103616093.09542  25304113.8784   25304108.5604
        38.100          17.800
 104812781.10747  81672321.91546  19945186.7994   19945178.1404
        47.900          40.000
 130550030.48346 101727261.17443  24842852.7904   24842847.8824
        38.100          19.000
 111610606.51247  86969281.01546  21238787.6774   21238778.7254
        47.700          36.700
 09  5 11  0 44  0.0000000  0 12G25G31G 6G 7G19G32G23G16G11G 3G20G13
 117115383.67048  91258716.01145  22286308.0934   22286299.6104
        48.800          32.300
 131421521.08946 102406349.90643  25008679.6684   25008671.0094
        38.700          22.800
 110492059.71048  86097723.66346  21025923.6104   21025914.6584
        48.600          38.400
 124055740.04346  96666770.07844  23607017.2974   23607010.6304
        39.300          26.100
 108235815.65348  84339612.90946  20596566.1754   20596555.6404
        49.000          40.900
 131118998.71545                  24951115.3554
        31.600
 106255756.60748  82796667.11746  20219792.0974   20219780.9764
        51.900          40.300
 120162320.05647  93632929.46845  22866111.6314   22866102.3864
        44.100          30.500
 132892116.57746 103552269.66143  25288528.9314   25288521.7374
        38.800          20.400
 104823040.24748  81680316.06246  19947138.5734   19947130.1484
        48.300          39.700
 130611944.62046 101775506.04042  24854635.9314   24854630.1444
        38.900          17.400
 111559193.79148  86929219.18146  21229004.0574   21228994.9874
        49.300          37.400
 09  5 11  0 44 30.0000000  0 12G25G31G 6G 7G19G32G23G16G11G 3G20G13
 117050049.02148  91207805.92845  22273874.9894   22273866.2124
        48.200          33.200
 131486711.41545 102457147.58443  25021083.2444   25021076.1674
        35.700          20.400
 110535650.43448  86131690.47746  21034218.4214   21034210.5244
        48.400          38.500
 123976914.76846  96605347.86343  23592017.5394   23592009.4074
        39.100          22.300
 108184172.43848  84299371.47846  20586739.3364   20586728.8604
        49.500          41.200
 131182030.48455                  24963110.4314
        33.700
 106275004.16948  82811665.22646  20223454.6084   20223443.8394
        51.300          40.400
 120232289.83347  93687451.36945  22879426.6384   22879417.3344
        44.100          30.200
 132809972.16145 103488261.12942  25272895.4374   25272889.8254
        35.600          17.800
 104833903.00248  81688780.56546  19949206.0984   19949197.3804
        48.700          39.700
 130673702.28246 101823628.90642  24866387.4614   24866381.9084
        37.900          16.900
 111508313.42548  86889572.16546  21219321.7044   21219313.1034
        48.800          36.500
 09  5 11  0 45  0.0000000  0 12G25G31G 6G 7G19G32G23G16G11G 3G20G13
 116984749.59248  91156923.31045  22261449.9404   22261440.4014
        48.000          33.100
 131552081.91245 102508085.62343  25033522.4524   25033515.5514
        34.300          18.300
 110579720.84348  86166031.07346  21042604.9054   21042596.7154
        48.500          38.700
 123898038.13546  96543885.66544  23577009.1114   23577000.8624
        40.100          26.000
 108133057.20648  84259541.46346  20577011.8724   20577001.6894
        48.700          41.200
 131244826.82546                  24975062.2684
        37.900
 106294865.84748  82827141.86846  20227233.5434   20227223.0674
        50.900          40.600
 120302233.86547  93741953.22444  22892736.8514   22892727.0784
        43.100          29.900
 132727590.19246 103424067.42342  25257219.6614   25257211.8234
        38.400          17.400
 104845367.63647  81697714.07046  19951387.6084   19951378.8324
        47.500          39.900
 130735299.58046 101871626.94943  24878108.5384   24878103.9234
        38.600          19.000
 111457966.42848  86850340.76746  21209740.7674   21209731.9324
        49.300          37.300
 09  5 11  0 45 30.0000000  0 12G25G31G 6G 7G19G32G23G16G11G 3G20G13
 116919487.14447  91106069.47645  22249030.2964   22249021.8124
        47.800          32.900
 131617632.59346 102559164.16143  25045997.1384   25045989.7104
        37.700          21.300
 110624269.10648  86200744.01746  21051082.4354   21051073.3664
        50.000          38.800
 123819110.49246  96482383.68844  23561988.7414   23561980.7854
        40.100          26.900
 108082471.65647  84220124.19246  20567385.8684   20567375.4504
        47.800          41.100
 131307387.92946 102317425.86053  24986967.0744   24986960.2904
        40.100          19.000
 106315341.15948  82843096.66146  20231130.1734   20231119.3454
        51.000          40.400
 120372150.98447  93796434.09744  22906040.4024   22906031.4504
        45.000          29.700
 132644972.80046 103359690.26943  25241498.6034   25241490.1784
        39.900          19.900
 104857433.14948  81707115.79246  19953683.6704   19953674.8944
        48.500          39.800
 130796734.54146 101919498.41643  24889799.6624   24889794.6374
        39.400          19.000
 111408155.08148  86811526.75946  21200261.8034   21200253.4374
        48.400          36.800
 09  5 11  0 46  0.0000000  0 12G25G31G 6G 7G19G32G23G16G11G 3G20G13
 116854263.80647  91055246.14945  22236618.5774   22236610.0934
        47.200          33.000
 131683364.36846 102610383.75643  25058506.2114   25058498.0214
        39.800          22.000
 110669294.19848  86235828.52246  21059650.1304   21059641.2364
        49.200          38.500
 123740133.97047  96420843.59644  23546960.4884   23546951.7124
        42.000          24.800
 108032418.37247  84181121.66846  20557861.5414   20557850.6544
        47.200          40.900
 131369712.84246 102365990.91343  24998827.1134   24998821.2084
        40.100          22.500
 106336429.71148  82859529.31046  20235143.3184   20235132.0804
        50.700          40.500
 120442040.68947  93850893.61744  22919339.9674   22919331.4834
        43.700          29.300
 132562122.05146 103295131.26243  25225730.0704   25225724.9284
        36.700          18.600
 104870099.32948  81716985.56546  19956093.8844   19956085.5184
        48.200          39.800
 130858005.52346 101967242.13243  24901458.1654   24901453.1984
        36.600          18.300
 111358881.27848  86773131.60646  21190886.1104   21190876.8064
        48.300          37.500
 09  5 11  0 46 30.0000000  0 12G25G31G 6G 7G19G32G23G16G11G 3G20G13
 116789081.11447  91004454.47745  22224214.0164   22224205.8854
        46.800          33.100
 131749277.20446 102661744.47144  25071049.5694   25071041.2034
        41.300          25.200
 110714794.34748  86271283.19846  21068308.7924   21068299.8404
        50.200          38.300
 123661109.68747  96359266.32344  23531922.6744   23531913.7804
        42.100          25.900
 107982899.10648  84142535.26346  20548438.2524   20548427.7764
        48.400          41.200
 131431799.65745 102414370.39343  25010640.4394   25010636.7624
        34.700          21.500
 106358131.50448  82876439.80146  20239272.7384   20239262.0864
        50.100          40.100
 120511902.38047  93905331.31545  22932634.7784   22932625.5324
        44.300          30.600
 132479039.87646 103230392.00743  25209921.2664   25209915.5384
        37.300          20.100
 104883365.78048  81727323.07946  19958618.3564   19958609.4624
        48.700          39.700
 130919110.39646 102014856.29543  24913086.0854   24913081.9984
        37.300          18.600
 111310147.64548  86735157.37746  21181612.0494   21181602.9214
        48.900          36.800
 09  5 11  0 47  0.0000000  0 12G25G31G 6G 7G19G32G23G16G11G 3G20G13
 116723940.15547  90953695.32545  22211818.9404   22211810.7504
        47.300          33.400
 131815370.66246 102713245.91844  25083626.0684   25083617.8784
        41.600          25.500
 110760767.35348  86307106.32946  21077056.7974   21077048.3134
        50.500          38.500
 123582038.46447  96297652.47844  23516876.0784   23516868.6504
        43.000          27.400
 107933914.99048  84104365.86146  20539116.6734   20539106.1384
        48.600          41.000
 131493646.34555                  25022408.9874
        33.700
 106380444.83748  82893826.81846  20243518.8904   20243507.8274
        50.900          40.600
 120581734.48747  93959745.94945  22945923.2204   22945914.5024
        43.900          30.300
 132395727.36646 103165473.28143  25194067.4734   25194061.8034
        39.500          18.300
 104897230.35848  81738126.66246  19961256.6924   19961247.6234
        48.800          40.100
 130980046.40846 102062339.02642  24924681.7574   24924677.5534
        38.400          17.400
 111261955.62048  86697605.16646  21172440.9764   21172432.3174
        49.500          37.600
 09  5 11  0 47 30.0000000  0 12G25G31G 6G 7G19G32G23G16G11G 3G20G13
 116658842.30547  90902969.74845  22199430.8164   22199422.2154
        45.800          32.400
 131881644.54746 102764887.92443  25096238.5704   25096229.6774
        39.200          22.500
 110807211.02548  86343296.22646  21085894.6824   21085886.4334
        49.500          39.100
 123502921.07846  96236002.62844  23501819.5634   23501812.4864
        40.700          25.300
 107885467.40448  84066614.52546  20529897.3054   20529887.0054
        48.600          41.000
 131555250.77246                  25034133.2504
        38.800
 106403368.66948  82911689.55746  20247881.3074   20247870.3624
        51.000          40.500
 120651535.68447  94014136.51245  22959205.8834   22959196.6974
        43.900          30.900
 132312186.31446 103100376.41442  25178169.5874   25178162.9214
        39.900          17.400
 104911692.54348  81749395.92946  19964008.5714   19963999.7364
        48.200          39.800
 131040811.33046 102109688.42443  24936243.8524   24936240.0574
        38.500          18.300
 111214306.85848  86660476.28846  21163373.8384   21163364.8854
        49.600          37.400
 09  5 11  0 48  0.0000000  0 12G25G31G 6G 7G19G32G23G16G11G 3G20G13
 116593790.10847  90852279.75845  22187052.1114   22187043.3344
        47.200          33.300
 131948100.08946 102816671.45143  25108883.3504   25108875.9224
        37.500          20.600
 110854124.80748  86379852.43746  21094822.1124   21094813.4524
        49.700          38.300
 123423759.52846  96174318.34244  23486754.9904   23486747.0344
        40.800          24.600
 107837559.16648  84029283.46846  20520781.2454   20520770.0654
        50.000          41.300
 131616612.28146 102558367.83053  25045808.7594   25045800.8034
        41.200          21.500
 106426903.14248  82930028.11646  20252359.7714   20252348.9434
        52.000          41.100
 120721306.40847  94068503.31145  22972482.6774   22972474.0774
        44.900          30.100
 132228419.49546 103035103.66942  25162228.7104   25162222.6884
        37.900          16.300
 104926752.38948  81761130.89746  19966874.7514   19966865.9754
        50.000          39.800
 131101403.87346 102156903.44542  24947776.2824   24947770.4364
        37.700          16.900
 111167204.37848  86623773.08446  21154410.8104   21154401.9754
        51.000          37.600
 09  5 11  0 48 30.0000000  0 12G25G31G 6G 7G19G32G23G16G11G 3G20G13
 116528784.80748  90801626.30145  22174681.8204   22174673.4544
        48.000          33.300
 132014736.59846 102868596.08543  25121564.0344   25121556.0794
        38.300          21.500
 110901506.21648  86416773.02246  21103838.4204   21103830.1134
        49.100          38.500
 123344554.47646  96112600.14744  23471683.3894   23471676.1364
        40.400          24.700
 107790191.53148  83992373.65246  20511766.6474   20511756.1714
        48.500          41.200
 131677728.75546 102605991.24842  25057437.3834   25057433.0024
        37.900          16.900
 106451047.28148  82948841.73546  20256954.3854   20256943.6164
        52.100          40.600
 120791045.38047  94122845.38545  22985754.0074   22985744.9374
        44.600          30.000
 132144428.22946 102969656.07443  25146245.7464   25146240.0174
        40.200          19.900
 104942408.01948  81773330.10646  19969853.5214   19969845.0964
        48.800          40.000
 131161821.53846 102203982.21442  24959273.0274   24959267.4164
        38.000          17.400
 111120649.55648  86587496.62046  21145552.0034   21145542.6404
        49.300          37.400
 09  5 11  0 49  0.0000000  0 12G25G31G 6G 7G19G32G23G16G11G 3G20G13
 116463827.02947  90751009.88145  22162320.6014   22162311.7664
        47.400          33.700
 132081553.32946 102920661.06443  25134278.6014   25134270.5874
        39.000          20.900
 110949352.47348  86454055.83046  21112943.1144   21112934.9244
        48.900          39.300
 123265306.15046  96050848.29044  23456602.2334   23456596.5044
        39.500          27.000
 107743365.15148  83955885.60346  20502856.5624   20502845.7344
        50.000          41.200
 131738597.30845 102653421.38142  25069021.6474   25069016.7984
        34.500          17.800
 106475798.94848  82968128.75446  20261664.0994   20261653.6814
        50.900          40.700
 120860750.63347  94177161.17445  22999018.2454   22999008.6494
        45.400          30.200
 132060213.47146 102904034.31643  25130220.6434   25130214.9734
        40.200          20.600
 104958657.72447  81785992.23446  19972945.6514   19972937.3444
        47.900          39.600
 131222061.32845 102250922.34243  24970734.3174   24970730.8164
        34.800          19.600
 111074643.49748  86551647.77446  21136797.1964   21136787.7754
        50.000          37.600
 09  5 11  0 49 30.0000000  0 12G25G31G 6G 7G19G32G23G16G11G 3G20G13
 116398918.71147  90700431.99445  22149969.8804   22149960.4594
        46.300          33.600
 132148550.59046 102972866.75843  25147028.1734   25147019.5144
        38.100          22.800
 110997662.20647  86491699.79146  21122136.3784   21122127.8954
        47.900          38.200
 123186016.07247  95989063.91544  23441515.9834   23441507.3834
        43.400          27.800
 107697081.95848  83919820.82046  20494048.8214   20494038.0514
        49.800          41.200
 131799217.10046 102700657.73143  25080557.6114   25080552.3514
        38.800          18.300
 106501157.74448  82987888.86746  20266489.9414   20266479.1134
        51.100          40.200
 120930421.55247  94231450.19745  23012276.0694   23012267.4684
        45.100          30.600
 131975777.52346 102838240.22042  25114152.3574   25114146.4524
        39.500          16.900
 104975500.90047  81799116.80746  19976150.2194   19976142.3224
        47.900          39.400
 131282121.46846 102297722.50942  24982166.2024   24982159.0664
        38.100          17.800
 111029188.66848  86516228.44846  21128147.3904   21128137.5594
        49.600          37.000
 09  5 11  0 50  0.0000000  0 12G25G31G 6G 7G19G32G23G16G11G 3G20G13
 116334061.44747  90649893.87745  22137627.2144   22137618.6724
        47.200          34.400
 132215728.13646 103025212.96244  25159811.5424   25159803.1764
        41.300          24.000
 111046433.35348  86529703.29946  21131417.0714   21131408.0604
        49.100          38.100
 123106685.24047  95927247.69344  23426418.7044   23426409.8694
        42.700          25.900
 107651343.23048  83884180.29046  20485345.0084   20485333.9454
        48.100          40.800
 131859585.98246 102747698.56242  25092044.3854   25092040.1214
        38.000          16.300
 106527122.55548  83008121.19146  20271430.7814   20271419.9544
        51.600          41.000
 121000057.14747  94285711.72044  23025527.4974   23025518.0764
        47.000          29.900
 131891121.80946 102772274.78843  25098042.7674   25098036.6874
        37.900          18.600
 104992936.59748  81812703.08446  19979468.9944   19979460.5694
        48.700          39.500
 131341999.34646 102344380.66742  24993559.8964   24993553.9914
        36.800          17.400
 110984286.37048  86481239.67746  21119602.5424   21119593.3564
        50.200          37.400
 09  5 11  0 50 30.0000000  0 12G25G31G 6G 7G19G32G23G16G11G 3G20G13
 116269257.43747  90599397.29645  22125294.7124   22125287.1074
        45.300          34.000
 132283086.81946 103077700.24343  25172628.3784   25172621.4774
        38.800          22.600
 111095664.56748  86568065.30046  21140785.9204   21140776.7334
        48.500          38.200
 123027315.52547  95865401.24644  23411314.3714   23411306.7084
        42.500          27.200
 107606151.41347  83848965.92746  20476745.0464   20476734.6294
        47.000          41.000
 131919702.85245 102794543.15142  25103483.2884   25103480.5484
        35.200          16.900
 106553693.32548  83028825.69346  20276487.2104   20276476.0894
        50.300          41.300
 121069657.33647  94339945.64244  23038772.1184   23038762.6974
        46.900          29.800
 131806249.06346 102706140.44742  25081892.4744   25081885.8074
        39.200          17.800
 105010964.17748  81826750.58146  19982899.3354   19982890.9104
        48.500          39.200
 131401693.77446 102390895.88142  25004919.3374   25004913.4334
        36.400          16.900
 110939939.36648  86446683.59946  21111164.2094   21111154.6124
        49.100          37.600
 09  5 11  0 51  0.0000000  0 12G25G31G 6G 7G19G32G23G16G11G 3G20G13
 116204507.80947  90548943.07345  22112974.0964   22112965.3784
        45.900          34.000
 132350626.10846 103130328.27143  25185481.9534   25185473.0594
        39.200          23.600
 111145353.64848  86606784.08146  21150241.3984   21150232.1524
        48.800          38.000
 122947907.46647  95803524.90544  23396205.0274   23396196.0164
        43.900          27.300
 107561507.58847  83814178.56546  20468249.3724   20468238.8964
        47.700          41.200
 131979565.89245 102841189.83142  25114875.3794   25114871.2334
        35.200          17.400
 106580868.34448  83050001.05246  20281658.5804   20281647.6934
        49.900          41.000
 121139221.00047  94394151.09745  23052009.5434   23051999.9464
        46.400          30.600
 131721160.52346 102639837.86142  25065699.9894   25065694.3774
        38.300          17.800
 105029582.55448  81841258.42846  19986442.2914   19986433.3984
        48.800          38.800
 131461202.07645 102437266.12042  25016241.8634   25016237.4824
        34.500          16.900
 110896148.90548  86412561.19146  21102830.6904   21102821.4454
        49.400          37.600
 09  5 11  0 51 30.0000000  0 12G25G31G 6G 7G19G32G23G16G11G 3G20G13
 116139814.28547  90498532.56745  22100663.4244   22100654.0614
        46.300          33.400
 132418345.99945 103183097.05643  25198366.9434   25198360.1014
        35.400          21.100
 111195498.64247  86645858.12346  21159782.9484   21159775.1684
        47.600          38.300
 122868462.55347  95741619.84444  23381086.2974   23381077.9314
        43.700          25.700
 107517413.05848  83779819.22346  20459858.6054   20459847.7194
        48.100          41.200
 132039173.48946 102887637.43243  25126217.9594   25126213.2854
        38.400          18.600
 106608646.80448  83071646.61046  20286944.0054   20286933.5874
        50.700          40.900
 121208746.88547  94448327.12545  23065239.3874   23065231.1384
        46.100          30.500
 131635858.32046 102573368.74642  25049467.8014   25049461.1344
        39.400          17.800
 105048790.44648  81856225.64146  19990097.2554   19990088.7134
        48.200          39.100
 131520522.25845 102483489.68242  25027528.6944   25027525.8384
        33.700          16.300
 110852917.03248  86378874.04446  21094603.7394   21094594.9624
        49.000          37.200
 09  5 11  0 52  0.0000000  0 12G25G31G 6G 7G19G32G23G16G11G 3G20G13
 116075179.47347  90448167.81445  22088363.2894   22088354.5714
        46.300          33.600
 132486247.22946 103236007.16143  25211288.6774   25211280.8974
        38.200          20.900
 111246098.41948  86685286.53246  21169411.8534   21169403.6634
        48.500          38.100
 122788982.71247  95679687.57644  23365961.8344   23365953.3504
        44.300          27.800
 107473870.42548  83745889.93146  20451573.0074   20451562.2964
        48.400          41.000
 132098524.52546 102933885.12943  25137511.6294   25137507.0724
        39.000          20.400
 106637028.51248  83093762.23446  20292345.3574   20292333.5924
        51.400          41.100
 121278235.04847  94502473.73845  23078463.4054   23078453.6324
        47.600          30.200
 131550344.66246 102506734.93243  25033194.7704   25033188.5724
        39.600          19.900
 105068587.35548  81871651.82746  19993865.0564   19993855.8114
        48.900          39.100
 131579653.25546 102529565.87942  25038783.3944   25038777.5484
        37.900          17.800
 110810246.34548  86345624.19046  21086483.6494   21086474.6974
        49.100          37.000
 09  5 11  0 52 30.0000000  0 12G25G31G 6G 7G19G32G23G16G11G 3G20G13
 116010602.89547  90397848.45945  22076075.4254   22076066.4144
        46.400          34.000
 132554327.72746 103289056.95743  25224244.6014   25224236.7044
        39.000          21.300
 111297149.05947  86725066.26546  21179126.0164   21179117.9434
        47.800          37.300
 122709466.88947  95617727.27544  23350830.5924   23350822.6954
        44.100          28.300
 107430878.79648  83712389.99446  20443391.7404   20443380.9124
        48.900          40.500
 132157615.60945 102979930.18142  25148756.1204   25148751.7984
        34.600          14.800
 106666010.24748  83116345.40946  20297860.4924   20297849.0194
        50.800          40.500
 121347682.97347  94556589.01445  23091678.7254   23091669.1284
        47.200          30.400
 131464619.99146 102439936.64343  25016882.2954   25016876.2154
        39.500          19.300
 105088969.92448  81887534.36546  19997743.4814   19997734.4124
        49.000          39.300
 131638590.84446 102575491.33743  25049998.3914   25049992.1934
        38.100          20.400
 110768136.28348  86312811.18046  21078470.0744   21078461.1804
        49.300          37.000
 09  5 11  0 53  0.0000000  0 12G25G31G 6G 7G19G32G23G16G11G 3G20G13
 115946087.39147  90347576.68045  22063797.4304   22063789.0054
        46.300          33.900
 132622588.67146 103342247.31343  25237234.1184   25237225.9274
        38.900          21.800
 111348649.83347  86765196.75446  21188926.5814   21188918.3324
        47.500          37.300
 122629917.69947  95555740.98444  23335692.3354   23335684.2034
        43.100          27.300
 107388441.11048  83679321.70546  20435316.0094   20435305.0054
        48.400          40.600
 132216446.45246 103025772.67642  25159951.5994   25159946.7504
        37.600          16.900
 106695592.22948  83139396.32046  20303489.1364   20303478.3674
        50.800          40.200
 121417091.34347  94610673.46845  23104886.1564   23104877.0864
        46.800          30.700
 131378687.18746 102372976.25943  25000529.9894   25000524.3784
        39.200          21.100
 105109938.35848  81903873.43646  20001733.5464   20001724.7704
        48.200          39.400
 131697334.08846 102621265.41842  25061176.5554   25061170.8274
        36.000          17.800
 110726589.92948  86280437.43046  21070564.0884   21070555.0774
        48.500          36.500
 09  5 11  0 53 30.0000000  0 12G25G31G 6G 7G19G32G23G16G11G 3G20G13
 115881634.13747  90297353.42345  22051533.3194   22051524.0154
        45.800          34.200
 132691029.21646 103395577.59043  25250257.5474   25250249.5334
        37.900          22.000
 111400598.14148  86805675.97246  21198812.8564   21198803.7284
        48.200          37.800
 122550335.73547  95493729.12244  23320549.0054   23320539.9954
        45.300          29.600
 107346558.07248  83646685.61346  20427346.3214   20427335.3184
        49.000          40.100
 132275014.63346 103071410.31442  25171097.6794   25171091.7744
        36.000          16.300
 106725772.60248  83162913.50146  20309232.9454   20309222.0004
        51.300          40.400
 121486458.11847  94664725.49544  23118086.2394   23118077.2284
        47.200          29.900
 131292547.32046 102305854.48243  24984137.9654   24984131.1814
        40.500          21.100
 105131490.90548  81920667.65146  20005834.8184   20005825.9244
        49.500          39.900
 131755880.39545 102666886.04043  25072316.2654   25072312.2364
        35.900          18.300
 110685608.50948  86248503.87446  21062766.1714   21062757.0434
        49.100          36.700
 09  5 11  0 54  0.0000000  0 12G25G31G 6G 7G19G32G23G16G11G 3G20G13
 115817245.18547  90247180.26645  22039279.3744   22039271.1254
        44.500          33.600
 132759649.81046 103449048.22943  25263315.4244   25263307.4104
        39.000          20.900
 111452992.23048  86846502.56546  21208782.4634   21208773.9214
        48.200          37.700
 122470722.66447  95431693.04744  23305398.1204   23305391.0444
        43.600          28.800
 107305231.38048  83614483.02946  20419481.5874   20419470.7014
        48.100          39.900
 132333319.08646 103116842.55942  25182191.7354   25182186.7094
        37.500          17.800
 106756550.84148  83186896.55546  20315089.5154   20315078.8634
        50.900          40.100
 121555782.88847  94718744.79844  23131278.4734   23131269.1694
        46.900          29.900
 131206203.02146 102238573.37643  24967707.1104   24967699.5644
        39.100          19.600
 105153626.87648  81937916.47946  20010047.1934   20010038.7104
        49.300          39.800
 131814228.01645 102712351.81742  25083421.3014   25083414.6934
        35.000          15.600
 110645194.14248  86217012.17746  21055075.0694   21055065.8244
        48.600          37.000
 09  5 11  0 54 30.0000000  0 12G25G31G 6G 7G19G32G23G16G11G 3G20G13
 115752922.72947  90197058.93845  22027039.9154   22027031.3734
        45.200          33.600
 132828450.83146 103502659.38043  25276406.9104   25276400.3024
        38.100          22.200
 111505830.67747  86887675.40046  21218837.5194   21218828.5674
        47.500          37.100
 122391079.98247  95369633.94144  23290242.1324   23290234.7034
        43.800          28.100
 107264462.89448  83582715.41046  20411723.6474   20411712.7604
        49.100          40.200
 132391358.51346 103162068.20343  25193236.2684   25193229.9534
        37.300          19.000
 106787926.11548  83211344.83346  20321060.0414   20321048.8624
        51.300          40.100
 121625065.65547  94772731.39444  23144461.9824   23144453.1474
        47.000          28.900
 131119656.72746 102171134.84043  24951236.2784   24951229.8464
        37.700          19.600
 105176344.89848  81955618.85046  20014369.9134   20014361.7234
        49.500          39.900
 131872375.32646 102757661.54342  25094487.6474   25094479.8084
        38.200          17.800
 110605348.76348  86185963.85246  21047492.9164   21047484.3154
        48.500          37.000
 09  5 11  0 55  0.0000000  0 12G25G31G 6G 7G19G32G23G16G11G 3G20G13
 115688667.81347  90146990.22945  22014812.2344   22014803.7504
        46.100          34.200
 132897431.62846 103556410.63543  25289534.2804   25289526.3244
        37.100          19.900
 111559111.08047  86929192.60546  21228975.7044   21228967.5134
        47.100          37.200
 122311408.79847  95307552.54744  23275082.7874   23275072.9564
        45.100          28.700
 107224253.54948  83551383.48546  20404071.8384   20404061.0104
        48.800          40.200
 132449131.07546 103207085.86743  25204229.8714   25204224.0844
        37.900          19.600
 106819896.73948  83236257.02046  20327143.9484   20327132.8274
        51.900          40.100
 121694305.36747  94826684.39744  23157638.4784   23157629.1164
        47.400          29.800
 131032909.56145 102103539.78542  24934728.8184   24934722.6794
        35.700          17.400
 105199643.67648  81973773.75546  20018803.7694   20018794.9344
        49.300          39.700
 131930319.95546 102802813.40443  25105513.0624   25105506.5124
        38.100          18.300
 110566073.54748  86155359.81846  21040019.0674   21040010.1734
        48.800          36.700
 09  5 11  0 55 30.0000000  0 12G25G31G 6G 7G19G32G23G16G11G 3G20G13
 115624482.04947  90096975.40745  22002598.0694   22002589.0584
        44.700          34.000
 132966591.98446 103610301.83543  25302694.8434   25302686.9464
        37.700          19.900
 111612830.87347  86971052.19746  21239198.2864   21239190.3894
        45.700          36.900
 122231709.97547  95245449.63144  23259914.9354   23259907.8584
        43.900          28.500
 107184604.55048  83520488.20246  20396526.8094   20396516.1574
        48.100          40.300
 132506634.93646 103251894.11843  25215172.0254   25215166.5314
        38.700          19.300
 106852460.98848  83261631.76646  20333340.4424   20333329.6144
        50.700          40.000
 121763500.70647  94880602.85844  23170805.9304   23170796.5094
        47.300          29.300
 130945963.45246 102035789.80242  24918184.7094   24918177.2224
        39.000          17.400
 105223521.59948  81992379.95746  20023347.3964   20023338.3854
        49.100          40.500
 131988059.98546 102847805.79643  25116500.4504   25116494.3704
        38.300          18.600
 110527369.90447  86125201.16446  21032653.6444   21032645.0444
        47.500          36.900
 09  5 11  0 56  0.0000000  0 12G25G31G 6G 7G19G32G23G16G11G 3G20G13
 115560367.19747  90047015.83345  21990397.5004   21990388.6654
        45.700          34.600
 133035932.06546 103664333.02643  25315890.1664   25315882.3864
        37.100          19.900
 111666988.28647  87013252.79646  21249504.4304   21249495.9464
        47.500          36.500
 122151984.73047  95183326.16944  23244744.2074   23244737.0134
        44.200          28.600
 107145516.56647  83490030.07346  20389089.0674   20389078.2394
        47.900          41.100
 132563868.68245 103296491.98442  25226062.4764   25226057.4514
        35.300          17.400
 106885618.00148  83287468.41046  20339650.2034   20339639.3174
        51.300          40.100
 121832651.05547  94934486.25144  23183964.4264   23183954.9464
        46.400          29.600
 130858820.39246 101967886.34043  24901602.3794   24901594.8334
        40.600          21.100
 105247977.43148  82011436.47146  20028001.1804   20027991.9344
        49.500          39.900
 132045592.89945 102892636.65442  25127444.7814   25127442.6864
        32.600          17.400
 110489239.49647  86095489.18845  21025397.6324   21025388.7974
        47.200          35.700
 09  5 11  0 56 30.0000000  0 12G25G31G 6G 7G19G32G23G16G11G 3G20G13
 115496325.65247  89997113.38745  21978210.6844   21978201.8494
        46.300          34.300
 133105451.58546 103718504.10743  25329120.0234   25329111.7164
        38.100          19.900
 111721582.00247  87055793.37446  21259893.2334   21259884.4564
        47.100          37.100
 122072235.06047  95121183.64044  23229568.1434   23229560.5974
        44.300          28.400
 107106991.79947  83460010.80346  20381757.7084   20381746.9974
        46.400          40.800
 132620831.39746 103340878.53643  25236903.8174   25236896.9164
        39.600          21.800
 106919366.93548  83313766.29546  20346072.0004   20346061.4664
        50.700          40.000
 121901756.59747  94988334.72044  23197114.9804   23197105.5004
        46.700          29.300
 130771482.77446 101899831.23543  24884981.3954   24884975.0804
        37.500          18.300
 105273010.25748  82030942.59046  20032764.8554   20032756.1374
        49.800          40.700
 132102917.60045 102937305.23842  25138356.1804   25138351.0964
        33.400          16.300
 110451684.56147  86066225.63046  21018251.4094   21018242.3404
        46.600          36.200
 09  5 11  0 57  0.0000000  0 12G25G31G 6G 7G19G32G23G16G11G 3G20G13
 115432357.58347  89947268.17745  21966037.9094   21966029.2494
        45.200          34.200
 133175149.46646 103772814.13543  25342381.6314   25342374.9644
        37.100          20.600
 111776608.31647  87098671.04146  21270364.2864   21270356.0374
        46.500          36.800
 121992460.66447  95059021.84444  23214387.9794   23214379.9644
        44.900          29.300
 107069030.06147  83430430.26746  20374534.6664   20374523.2524
        46.800          40.200
 132677519.92546 103385051.58543  25247689.9964   25247684.9124
        39.800          19.300
 106953704.93648  83340523.18246  20352606.6224   20352595.7364
        51.900          39.800
 121970814.47847  95042146.08344  23210255.9894   23210246.6854
        47.200          29.100
 130683951.33246 101831625.05543  24868324.2274   24868318.8504
        37.700          20.900
 105298617.17048  82050896.04346  20037637.7414   20037628.7304
        50.800          40.600
 132160030.10546 102981808.58143  25149224.5064   25149219.2464
        37.500          18.300
 110414705.02347  86037410.42246  21011214.6934   21011205.3894
        46.500          36.400
 09  5 11  0 57 30.0000000  0 12G25G31G 6G 7G19G32G23G16G11G 3G20G13
 115368465.97447  89897482.55145  21953879.4844   21953870.8254
        46.300          35.200
 133245026.75546 103827263.96143  25355678.8734   25355671.5624
        36.700          19.300
 111832066.34747  87141885.10846  21280917.2544   21280909.2984
        47.800          36.500
 121912664.38347  94996842.97444  23199203.2554   23199194.7724
        43.700          29.000
 107031633.86447  83401290.40046  20367418.0074   20367407.0624
        46.800          41.200
 132733933.86146 103429010.58142  25258424.3654   25258419.7504
        37.400          17.800
 106988632.08848  83367739.15446  20359253.2054   20359241.7334
        49.800          40.200
 122039825.73347  95095921.08344  23223388.4424   23223379.5484
        45.100          28.400
 130596229.15746 101763270.34043  24851632.3234   24851625.0714
        39.400          19.300
 105324798.26948  82071296.92446  20042619.7984   20042611.1394
        48.900          39.900
 132216930.44046 103026146.65943  25160051.6324   25160046.4894
        37.400          18.600
 110378303.67547  86009045.76746  21004287.7274   21004278.3654
        46.500          36.600
 09  5 11  0 58  0.0000000  0 12G25G31G 6G 7G19G32G23G16G11G 3G20G13
 115304652.06347  89847757.45345  21941736.1314   21941727.5894
        46.500          35.700
 133315082.54745 103881852.87943  25369008.9754   25369003.3054
        35.000          19.600
 111887953.44147  87185433.51646  21291552.7594   21291544.0414
        46.200          37.200
 121832846.66447  94934647.37144  23184014.2834   23184005.0964
        43.500          28.200
 106994803.84047  83372591.71446  20360409.0834   20360398.0794
        47.600          40.500
 132790071.32745 103472754.12842  25269108.1804   25269102.6274
        35.500          17.800
 107024146.24448  83395412.53746  20366011.3874   20366000.2074
        51.200          40.000
 122108789.10947  95149658.79144  23236511.9344   23236502.8064
        45.300          29.200
 130508317.85746 101694768.09543  24834904.4974   24834895.8964
        41.300          19.000
 105351551.04148  82092143.26346  20047710.8404   20047701.8294
        49.400          40.000
 132273615.56346 103070317.06742  25170839.1044   25170833.6104
        36.700          17.800
 110342481.53847  85981132.45346  20997470.3074   20997461.5304
        46.500          36.000
 09  5 11  0 58 30.0000000  0 12G25G31G 6G 7G19G32G23G16G11G 3G20G13
 115240917.58647  89798094.25945  21929607.7234   21929599.0064
        45.000          34.800
 133385316.77246 103936580.86043  25382375.9404   25382368.5124
        37.700          21.300
 111944267.56347  87229314.67646  21302268.7364   21302260.2534
        46.600          37.300
 121753008.96347  94872436.26245  23168822.5374   23168814.5814
        44.300          31.200
 106958541.15947  83344335.12146  20353508.3424   20353497.7494
        47.700          41.000
 132845930.82345 103516281.12643  25279738.5664   25279733.0144
        35.700          18.300
 107060245.87748  83423542.12146  20372880.7154   20372869.8874
        51.400          40.100
 122177703.82347  95203358.58644  23249626.2614   23249616.5474
        44.400          27.600
 130420219.32946 101626120.12043  24818137.2524   24818130.7614
        37.600          18.300
 105378874.61348  82113434.37446  20052910.3554   20052901.6964
        49.900          40.500
 132330083.74845 103114318.31542  25181582.9224   25181579.2444
        32.400          16.300
 110307240.08847  85953671.61045  20990764.4564   20990755.0934
        47.500          35.600
 09  5 11  0 59  0.0000000  0 12G25G31G 6G 7G19G32G23G16G11G 3G20G13
 115177264.66547  89748494.62145  21917495.4264   21917486.5324
        44.700          34.500
 133455729.88346 103991448.16743  25395776.3564   25395767.5214
        36.300          20.400
 112001006.92847  87273527.18946  21313065.9814   21313057.5564
        47.500          37.000
 121673153.15647  94810210.99445  23153625.1584   23153618.4924
        42.500          31.300
 106922847.32048  83316521.77146  20346716.3734   20346705.6634
        48.300          41.300
 132901511.41846 103559590.74642  25290315.3334   25290309.6044
        36.600          13.900
 107096930.47048  83452127.52446  20379861.5984   20379850.4184
        51.600          40.600
 122246569.45747  95257020.11744  23262730.1824   23262720.9964
        43.400          28.400
 130331935.99446 101557328.12043  24801336.6954   24801330.6734
        36.900          18.300
 105406767.91148  82135169.43646  20058218.1314   20058209.7644
        50.800          40.900
 132386333.44245 103158149.35442  25192288.2774   25192282.8414
        34.300          15.600
 110272581.25047  85926664.74945  20984168.6884   20984159.9114
        47.400          35.100
 09  5 11  0 59 30.0000000  0 12G25G31G 6G 7G19G32G23G16G11G 3G20G13
 115113695.24747  89698960.03045  21905398.1414   21905389.1894
        45.500          35.200
 133526322.02045 104046455.01443  25409208.8804   25409200.3384
        34.800          19.300
 112058169.56047  87318069.52346  21323943.9454   21323935.1694
        46.700          37.300
 121593280.27347  94747972.47244  23138425.8004   23138418.2544
        42.800          29.500
 106887723.21348  83289152.37146  20340032.3164   20340021.4884
        48.200          40.900
 132956811.88845 103602682.14243  25300837.5284   25300833.0304
        35.900          18.600
 107134198.32048  83481167.41246  20386953.0284   20386942.3764
        51.600          39.400
 122315385.60247  95310643.10944  23275825.8474   23275816.4844
        44.800          28.200
 130243469.72146 101488393.55343  24784503.2484   24784495.9954
        39.000          19.300
 105435229.46648  82157347.29246  20063633.9094   20063625.3674
        49.000          39.900
 132442394.85855 103201848.73252  25202949.7344   25202945.5884
        34.000          17.400
 110238506.37047  85900112.92445  20977684.8594   20977676.1424
        46.800          35.600
 09  5 11  1  0  0.0000000  0 12G25G31G 6G 7G19G32G23G16G11G 3G20G13
 115050208.95447  89649490.22645  21893317.1634   21893308.6214
        46.000          35.200
 133597089.85246 104101598.79943  25422676.0284   25422667.4274
        38.100          22.200
 112115751.17947  87362938.33246  21334901.0834   21334892.3064
        46.600          36.900
 121513390.02647  94685720.33044  23123223.2814   23123214.0354
        42.400          28.900
 106853168.15547  83262226.39646  20333456.8404   20333445.4854
        47.200          41.000
 133011828.31746 103645552.17742  25311306.8944   25311301.4584
        36.500          16.900
 107172045.97148  83510659.10246  20394155.6274   20394144.5654
        52.400          39.700
 122384149.68847  95364225.50944  23288911.1774   23288901.8154
        45.400          27.700
 130154820.97046 101419316.76843  24767634.6484   24767626.8104
        37.800          19.000
 105464255.43548  82179964.93946  20069157.4284   20069149.0624
        48.800          40.300
 132498199.86645 103245333.26842  25213568.4624   25213563.7884
        34.800          17.400
 110205014.82247  85874015.64946  20971311.4254   20971302.4144
        47.400          36.000
 09  5 11  1  0 30.0000000  0 12G25G31G 6G 7G19G32G23G16G11G 3G20G13
 114986810.26347  89600088.67645  21881252.8274   21881244.1674
        46.200          34.800
 133668036.40346 104156881.80743  25436176.5864   25436168.0444
        38.700          20.900
 112173752.25247  87408134.00346  21345938.2694   21345929.4934
        47.300          37.300
 121433486.11147  94623457.60945  23108018.7574   23108010.0974
        44.200          30.800
 106819185.68947  83235746.58046  20326989.8584   20326978.7964
        47.900          40.900
 133066547.83255                  25321722.1244
        30.300
 107210474.33548  83540603.28946  20401468.6284   20401457.1554
        52.700          40.100
 122452863.18047  95417768.52044  23301987.2514   23301977.4784
        45.600          26.500
 130065993.86046 101350101.01042  24750730.1994   24750722.8884
        37.600          17.400
 105493847.21848  82203023.48846  20074788.2564   20074779.7144
        49.900          41.200
 132553780.95746 103288643.28743  25224147.1294   25224140.3454
        36.800          18.300
 110172110.52447  85848375.97845  20965050.0764   20965041.2414
        47.000          35.600
 09  5 11  1  1  0.0000000  0 12G25G31G 6G 7G19G32G23G16G11G 3G20G13
 114923499.47347  89550755.63646  21869205.4844   21869196.9424
        45.600          36.000
 133739159.96545 104212302.79142  25449710.6874   25449702.4384
        35.200          17.400
 112232169.24347  87453653.76046  21357055.0274   21357046.0754
        47.600          38.300
 121353568.69247  94561184.32545  23092811.1604   23092802.7944
        45.100          30.900
 106785775.47347  83209712.67846  20320632.4764   20320621.1214
        47.100          41.000
 133120995.95945 103730616.08353  25332082.2134   25332075.8394
        33.600          18.300
 107249480.56148  83570997.76046  20408891.0244   20408879.8454
        52.100          39.500
 122521524.26847  95471270.68044  23315052.7994   23315043.4364
        44.300          27.800
 129976989.26846 101280747.01343  24733793.8764   24733785.9214
        38.200          19.600
 105524001.27448  82226520.18146  20080526.8434   20080518.0084
        48.900          40.800
 132609134.78446 103331776.18742  25234678.8654   25234673.6054
        36.600          17.800
 110139793.53247  85823193.93645  20958900.3554   20958891.3454
        47.700          35.300
 09  5 11  1  1 30.0000000  0 12G25G31G 6G 7G19G32G23G16G11G 3G20G13
 114860279.41847  89501493.28745  21857174.6844   21857165.4384
        45.800          35.100
 133810461.54846 104267862.45442  25463278.6484   25463270.3994
        36.000          17.400
 112291000.83647  87499496.58846  21368250.1684   21368241.5674
        47.600          38.300
 121273639.72647  94498902.08545  23077599.8414   23077592.9414
        43.500          31.100
 106752939.20347  83184125.99946  20314383.6194   20314373.0264
        46.800          40.500
 133175158.23045 103772820.47942  25342388.5324   25342384.6794
        34.600          16.900
 107289063.92548  83601841.95146  20416423.3364   20416412.0394
        51.700          39.000
 122590133.36947  95524732.32844  23328108.8954   23328099.2394
        44.100          26.700
 129887810.23146 101211257.00743  24716822.5714   24716815.2014
        37.000          20.400
 105554717.51948  82250454.93446  20086372.1804   20086363.0524
        49.100          40.800
 132664260.74545 103374731.53342  25245170.8674   25245163.8494
        34.700          15.600
 110108066.07147  85798471.28245  20952863.0124   20952853.0054
        46.400          35.600
 09  5 11  1  2  0.0000000  0 12G25G31G 6G 7G19G32G23G16G11G 3G20G13
 114797154.93047  89452305.41946  21845162.7484   21845153.9714
        45.600          36.300
 133881943.58446 104323562.73143  25476881.8094   25476873.0914
        38.400          19.000
 112350247.93147  87545663.17346  21379524.3404   21379515.6814
        47.900          38.600
 121193703.98447  94436614.58545  23062389.1934   23062381.4724
        44.700          32.000
 106720681.09547  83158989.84046  20308245.3404   20308234.2194
        46.400          41.200
 133229036.33046 103814803.47543  25352642.5804   25352636.7344
        39.300          20.900
 107329226.20848  83633137.25946  20424065.9444   20424054.8824
        52.100          39.300
 122658692.76747  95578155.25244  23341155.3314   23341145.9104
        43.900          27.600
 129798461.63745 101141634.97043  24699820.0114   24699812.2314
        35.400          18.600
 105585997.21448  82274828.74146  20092324.2424   20092315.2904
        49.300          40.800
 132719159.87344 103417510.26142  25255612.6574   25255612.0864
        25.900          13.900
 110076932.53947  85774211.41246  20946938.5404   20946928.7674
        46.900          36.300
 09  5 11  1  2 30.0000000  0 12G25G31G 6G 7G19G32G23G16G11G 3G20G13
 114734118.17747  89403185.91046  21833167.2274   21833158.2754
        46.400          36.200
 133953596.32046 104379396.05742  25490515.7634   25490508.3934
        36.800          16.900
 112409898.62648  87592144.25146  21390875.1654   21390866.7404
        48.000          38.300
 121113753.35047  94374315.41745  23047175.5824   23047165.1644
        45.000          30.400
 106688992.26047  83134297.27446  20302214.7614   20302203.6994
        47.300          41.300
 133282618.84646 103856556.23642  25362839.0094   25362832.6364
        37.500          17.800
 107369956.08248  83664874.82446  20431816.6124   20431805.3744
        51.800          39.200
 122727192.25947  95631531.49644  23354189.3554   23354180.6384
        42.700          25.500
 129708936.00246 101071874.87342  24682783.9984   24682775.7494
        37.800          17.800
 105617829.03148  82299632.77046  20098381.5914   20098372.8734
        49.900          41.600
 132773820.70045                  25266018.3134
        35.900
 110046384.37748  85750407.67646  20941125.2224   20941116.0354
        48.700          36.000
 09  5 11  1  3  0.0000000  0 12G25G31G 6G 7G19G32G23G16G11G 3G20G13
 114671180.75447  89354143.81746  21821190.4724   21821181.9894
        47.500          36.700
 134025429.47845 104435369.95942  25504185.0604   25504177.5144
        35.000          16.900
 112469960.70448  87638945.88646  21402304.8284   21402296.2864
        48.400          38.400
 121033799.17047  94312013.48445  23031959.3844   23031952.0144
        42.900          31.200
 106657883.97347  83110057.07446  20296294.6944   20296284.3354
        46.300          40.900
 133335914.69646 103898085.60242  25372980.5484   25372975.7574
        39.700          15.600
 107411261.56248  83697060.93346  20439676.8814   20439665.2324
        51.900          38.800
 122795641.12147  95684868.30544  23367214.8344   23367205.8824
        43.400          27.100
 129619245.46046 101001986.29743  24665716.2104   24665708.0204
        38.300          19.900
 105650221.07548  82324873.34446  20104546.4344   20104536.9554
        49.200          41.800
 132828251.24046 103502507.61852  25276374.7934   25276369.5924
        37.700          17.800
 110016432.67747  85727068.71646  20935425.3464   20935416.2764
        46.800          36.400
 09  5 11  1  3 30.0000000  0 12G25G31G 6G 7G19G32G23G16G11G 3G20G13
 114608339.65447  89305176.76146  21809232.5124   21809223.5604
        46.700          36.300
 134097437.59946 104491480.15643  25517886.9984   25517880.4494
        37.900          19.900
 112530426.89648  87686062.40546  21413811.3734   21413802.4804
        49.200          38.500
 120953837.58447  94249705.87845  23016743.1504   23016736.8934
        42.700          31.700
 106627351.68847  83086265.71346  20290485.0714   20290473.8924
        47.600          41.200
 133388917.50745 103939386.57142  25383065.2024   25383061.8764
        35.400          15.600
 107453135.82048  83729690.23446  20447645.1394   20447633.8434
        51.900          39.100
 122864033.81847  95738161.33844  23380230.2154   23380220.3834
        43.800          26.000
 129529387.00745 100931966.86043  24648614.2674   24648609.0074
        34.400          19.300
 105683166.52048  82350545.14146  20110814.8434   20110805.8904
        49.500          41.400
 132882444.53546 103544736.26043  25286687.8424   25286682.2304
        38.800          20.600
 109987074.00147  85704191.86246  20929839.1634   20929829.9764
        47.700          36.200
 09  5 11  1  4  0.0000000  0 12G25G31G 6G 7G19G32G23G16G11G 3G20G13
 114545598.07448  89256287.26346  21797293.4034   21797283.8064
        48.000          36.600
 134169621.76846 104547727.59043  25531625.1574   25531616.9664
        38.700          18.300
 112591296.34748  87733493.17946  21425394.1814   21425385.8154
        49.100          38.900
 120873871.51447  94187394.74745  23001527.5354   23001519.2274
        43.500          31.900
 106597397.71647  83062924.99246  20284785.0964   20284773.8584
        47.800          40.300
 133441627.14746 103980459.07653  25393096.7424   25393090.1934
        38.400          20.600
 107495578.87048  83762762.75046  20455721.9094   20455710.1434
        51.900          39.000
 122932371.02347  95791411.11744  23393234.1224   23393224.8774
        43.400          25.800
 129439364.21445 100861819.46043  24631482.6434   24631478.5564
        34.000          19.600
 105716665.57548  82376648.31646  20117189.6874   20117180.9704
        49.100          41.200
 132936400.06146 103586779.65043  25296956.1234   25296949.3984
        38.800          19.000
 109958310.60447  85681778.86146  20924364.9024   20924355.8334
        46.800          36.800
 09  5 11  1  4 30.0000000  0 11G25G31G 6G 7G19G23G16G11G 3G20G13
 114482954.41848  89207474.08046  21785372.2464   21785363.0594
        48.800          36.800
 134241978.81446 104604109.73843  25545394.0434   25545385.6764
        38.900          22.000
 112652563.43348  87781233.78346  21437053.2484   21437044.4714
        48.300          38.900
 120793898.95847  94125078.51045  22986309.2744   22986299.0334
        45.000          31.400
 106568019.45147  83040032.87146  20279194.5374   20279183.3574
        47.000          40.800
 107538585.50448  83796274.42946  20463905.5994   20463894.3614
        51.300          39.300
 123000648.76547  95844614.58244  23406227.3914   23406218.3224
        43.900          26.200
 129349175.95846 100791543.08743  24614324.4914   24614316.1844
        38.400          20.400
 105750712.73548  82403178.58847  20123668.1564   20123659.8484
        49.100          42.000
 132990112.78146 103628633.81342  25307177.6174   25307171.0684
        38.500          16.300
 109930140.32847  85659828.02246  20919004.3984   20918995.0944
        46.800          37.400
 09  5 11  1  5  0.0000000  0 12G25G31G 6G 7G19G32G23G16G11G 3G20G13
 114420418.07448  89158744.52346  21773471.9164   21773463.2564
        48.800          36.300
 134314515.37846 104660631.75743  25559196.8504   25559188.5434
        38.000          20.400
 112714233.45248  87829288.35346  21448788.3664   21448779.7664
        48.200          39.000
 120713928.76046  94062764.13645  22971089.1034   22971081.9674
        41.800          30.400
 106539225.43447  83017596.00246  20273715.1154   20273704.2294
        47.600          40.700
 133546158.26855                  25412988.8604
        33.700
 107582161.66148  83830229.89046  20472198.0384   20472186.5074
        51.400          39.000
 123068874.16247  95897777.23044  23419209.6544   23419200.2334
        43.600          25.600
 129258831.82646 100721145.07342  24597131.7884   24597122.6604
        38.000          17.800
 105785314.00348  82430140.64346  20130252.7084   20130244.1664
        49.000          41.500
 133043588.34745 103670303.18342  25317348.3974   25317347.8854
        30.300          14.800
 109902571.66747  85638345.96546  20913758.4414   20913748.7274
        47.800          37.100
 09  5 11  1  5 30.0000000  0 11G25G31G 6G 7G19G23G16G11G 3G20G13
 114357982.22248  89110093.26346  21761590.4044   21761581.7454
        49.500          37.200
 134387222.76346 104717286.82443  25573033.0324   25573024.1384
        40.700          22.600
 112776295.39348  87877648.31846  21460598.4424   21460589.2554
        49.800          37.900
 120633953.98347  94000446.23945  22955871.5474   22955863.8844
        44.500          32.300
 106511007.45448  82995607.98146  20268345.3074   20268334.7144
        48.100          41.500
 107626296.89648  83864621.00046  20480596.8754   20480585.9884
        51.600          38.900
 123137038.01147  95950891.94244  23432181.2504   23432171.5954
        43.500          25.400
 129168324.79045 100650620.34042  24579907.0974   24579899.3764
        35.700          17.400
 105820458.72148  82457526.15146  20136940.7884   20136931.7774
        49.700          41.400
 133096816.16945                  25327480.9204
        34.900
 109875597.38648  85617327.07046  20908625.5694   20908616.2654
        48.700          37.200
 09  5 11  1  6  0.0000000  0 11G25G31G 6G 7G19G23G16G11G 3G20G13
 114295653.45548  89061525.44546  21749729.9254   21749721.2074
        50.000          36.100
 134460105.16746 104774078.29843  25586902.8114   25586893.9764
        40.700          20.100
 112838751.64348  87926315.53946  21472483.6994   21472474.9824
        49.300          38.300
 120553981.03147  93938129.73045  22940654.3624   22940645.2924
        45.600          32.000
 106483371.31447  82974073.35646  20263086.2564   20263075.5454
        47.300          40.700
 107670993.97248  83899449.90146  20489102.0454   20489091.1584
        50.800          38.600
 123205144.34146  96003961.83044  23445141.0594   23445132.4594
        41.300          26.500
 129077662.16146 100579974.31543  24562655.5224   24562647.7424
        39.600          22.300
 105856150.24948  82485337.75846  20143732.3044   20143723.2354
        48.800          41.500
 133149799.07846                  25337564.9884
        39.200
 109849222.98547  85596775.61446  20903606.1784   20903597.4014
        47.900          37.800
 09  5 11  1  6 30.0000000  0 11G25G31G 6G 7G19G23G16G11G 3G20G13
 114233433.70448  89013042.57346  21737889.6224   21737880.7284
        49.400          36.700
 134533162.76746 104831006.32443  25600804.3774   25600796.1874
        40.700          22.000
 112901600.13648  87975288.40146  21484443.3804   21484434.6034
        50.000          38.600
 120474010.73447  93875815.31545  22925435.2914   22925427.4524
        44.500          30.200
 106456317.51447  82952992.50246  20257938.5074   20257927.2114
        47.400          41.000
 107716250.99848  83934715.13246  20497714.4164   20497703.0024
        51.400          38.500
 123273192.65946  96056986.48044  23458090.3944   23458081.3254
        41.600          25.100
 128986846.15246 100509208.79043  24545373.1394   24545367.5274
        39.500          23.300
 105892386.52248  82513573.83246  20150627.7654   20150619.3984
        48.900          41.400
 133202535.36446 103794155.23953  25347598.2134   25347592.7774
        40.800          19.900
 109823450.12748  85576692.88146  20898702.3924   20898692.6784
        49.200          37.700
 09  5 11  1  7  0.0000000  0 11G25G31G 6G 7G19G23G16G11G 3G20G13
 114171324.87148  88964646.13746  21726071.0024   21726061.5814
        51.200          36.700
 134606394.71046 104888070.21143  25614739.6574   25614731.3504
        38.400          20.900
 112964838.48448  88024565.03946  21496477.0594   21496467.9904
        50.400          38.600
 120394045.03947  93813504.45745  22910218.2274   22910209.3924
        44.700          31.200
 106429847.01547  82932366.17446  20252900.7324   20252889.8454
        47.300          41.300
 107762066.29848  83970415.37346  20506432.4344   20506421.6074
        52.000          39.100
 123341182.74246  96109965.79344  23471029.0724   23471018.4204
        41.400          24.900
 128895879.03346 100438325.39642  24528062.3284   24528055.4864
        38.700          17.800
 105929165.86748  82542233.08446  20157627.2244   20157618.4474
        49.800          41.300
 133255023.24046 103835055.04543  25357586.4324   25357581.3484
        37.400          18.600
 109798279.01648  85557079.05446  20893912.2094   20893902.4954
        49.000          37.400
 09  5 11  1  7 30.0000000  0 11G25G31G 6G 7G19G23G16G11G 3G20G13
 114109328.34648  88916337.20746  21714273.5314   21714264.1684
        49.400          37.000
 134679800.42245 104945269.53742  25628708.4484   25628700.5514
        33.500          17.400
 113028463.93048  88074143.32346  21508584.6914   21508575.7394
        48.500          38.000
 120314084.91747  93751197.92445  22895003.2634   22894994.0764
        44.500          32.000
 106403959.93148  82912194.44646  20247974.3004   20247963.5894
        48.000          41.700
 107808437.28548  84006548.62346  20515256.5824   20515245.2274
        52.200          37.500
 123409113.32847  96162898.74744  23483955.7264   23483945.1914
        42.400          25.400
 128804761.97246 100367325.22643  24510724.2574   24510716.1254
        41.200          19.300
 105966485.57148  82571313.39646  20164728.5954   20164719.9944
        49.000          40.900
 133307260.77746 103875759.69943  25367527.6364   25367520.9694
        38.600          18.300
 109773710.08548  85537934.44746  20889236.7674   20889227.4634
        48.800          38.200
 09  5 11  1  8  0.0000000  0 11G25G31G 6G 7G19G23G16G11G 3G20G13
 114047444.56148  88868116.12746  21702497.5844   21702487.8704
        50.300          36.800
 134753378.22746 105002602.86343  25642710.2984   25642702.0494
        39.400          22.000
 113092472.76948  88124020.35346  21520764.9514   21520756.2914
        48.200          37.700
 120234130.61747  93688895.96045  22879787.9524   22879780.1724
        44.900          32.300
 106378655.02147  82892476.36946  20243159.4564   20243148.4524
        47.500          41.000
 107855360.88848  84043112.47946  20524185.7904   20524174.4934
        51.200          38.000
 123476982.34646  96215783.70044  23496870.9094   23496861.4294
        41.900          27.000
 128713496.10047 100296209.10244  24493357.0534   24493348.8044
        42.800          24.300
 106004342.82948  82600812.57546  20171932.4494   20171924.0834
        48.800          40.200
 133359244.35046 103916266.41243  25377418.9734   25377413.4784
        39.300          18.300
 109749743.75848  85519259.41046  20884676.1914   20884666.6524
        48.700          37.800
 09  5 11  1  8 30.0000000  0 11G25G31G 6G 7G19G23G16G11G 3G20G13
 113985677.79348  88819986.22046  21690743.2744   21690734.0294
        50.400          36.100
 134827129.97046 105060071.78043  25656744.1644   25656736.2674
        38.100          19.300
 113156864.98448  88174196.11146  21533018.2604   21533009.3084
        49.000          38.200
 120154185.82347  93626601.42045  22864574.2264   22864566.7394
        42.800          30.800
 106353935.62548  82873214.52946  20238455.4214   20238444.3594
        48.300          41.300
 107902837.68148  84080107.38746  20533220.9424   20533209.2934
        51.600          37.700
 123544791.86146  96268622.29944  23509773.4394   23509764.3114
        39.900          24.700
 128622085.86946 100224980.53443  24475961.8854   24475954.8674
        41.700          22.800
 106042737.75248  82630730.71446  20179238.7044   20179230.0454
        49.800          40.900
 133410974.90745 103956576.03242  25387262.6284   25387257.8374
        35.900          17.800
 109726382.97548  85501056.22346  20880230.9944   20880221.4564
        49.200          38.600
 09  5 11  1  9  0.0000000  0 11G25G31G 6G 7G19G23G16G11G 3G20G13
 113924029.47948  88771948.61846  21679012.0744   21679002.9464
        51.600          36.900
 134901054.94845 105117675.66542  25670812.5624   25670804.7234
        35.900          15.600
 113221637.96647  88224668.57746  21545344.2684   21545335.1984
        47.800          38.000
 120074251.61447  93564315.05945  22849364.0434   22849354.7984
        43.800          30.900
 106329801.74147  82854408.93246  20233862.5274   20233852.1104
        46.700          41.000
 107950864.99048  84117531.27646  20542359.7464   20542348.5664
        51.200          37.200
 123612541.02946  96321413.86343  23522666.1804   23522655.8794
        41.600          22.300
 128530533.06546 100153640.88343  24458539.9884   24458531.5634
        40.200          18.300
 106081668.01248  82661066.00446  20186646.8684   20186638.3264
        48.800          40.300
 133462449.87046 103996686.40942  25397058.9764   25397053.4234
        37.100          17.800
 109703628.06548  85483325.14546  20875901.1504   20875891.3774
        48.600          38.600
 09  5 11  1  9 30.0000000  0 11G25G31G 6G 7G19G23G16G11G 3G20G13
 113862499.77748  88724003.44646  21667303.2124   21667294.1434
        50.400          36.300
 134975151.07045                  25684912.2334
        35.900
 113286787.40948  88275434.39446  21557742.0124   21557733.1184
        48.400          37.800
 119994327.85847  93502036.87445  22834154.6954   22834146.0944
        44.300          31.700
 106306252.22947  82836058.69446  20229381.1234   20229370.8234
        46.600          40.900
 107999439.01048  84155381.18146  20551603.0964   20551591.9754
        51.300          37.400
 123680227.39846  96374156.52044  23535546.6994   23535536.5744
        40.400          24.100
 128438837.93947 100082190.21243  24441092.0414   24441080.9794
        43.400          19.900
 106121129.88248  82691815.53046  20194156.3364   20194147.5014
        49.800          41.000
 133513666.07546 104036595.27742  25406804.7204   25406798.5814
        39.500          14.800
 109681477.99548  85466065.37746  20871685.5704   20871676.2084
        48.500          38.500
 09  5 11  1 10  0.0000000  0 11G25G31G 6G 7G19G23G16G11G 3G20G13
 113801091.31148  88676152.74746  21655618.0044   21655608.9344
        51.400          37.000
 135049419.25346                  25699044.6594
        37.600
 113352311.87347  88326492.43146  21570210.5484   21570201.8304
        47.600          37.200
 119914416.92847  93439768.65545  22818947.7674   22818939.4014
        43.900          30.900
 106283288.51647  82818164.93446  20225011.8584   20225000.5034
        46.800          41.800
 108048558.74448  84193656.30746  20560950.3434   20560938.9294
        51.400          37.700
 123747851.33346  96426850.51044  23548414.0814   23548405.4214
        40.200          24.100
 128347003.95947 100010631.34743  24423616.7404   24423607.2024
        44.300          23.000
 106161122.81348  82722978.87346  20201766.7254   20201758.2424
        49.300          41.000
 133564622.54246 104076301.69442  25416500.6814   25416495.5384
        38.300          16.300
 109659934.76748  85449278.46246  20867586.0814   20867576.5424
        48.900          38.400
 09  5 11  1 10 30.0000000  0 11G25G31G 6G 7G19G23G16G11G 3G20G13
 113739808.35048  88628399.83146  21643955.7564   21643946.3934
        50.800          36.400
 135123860.54945                  25713208.8324
        31.600
 113418211.11547  88377842.49746  21582750.7174   21582741.7654
        47.600          36.800
 119834522.58847  93377513.41745  22803744.2814   22803736.9704
        42.400          31.600
 106260913.30347  82800729.73146  20220753.9844   20220742.6294
        46.900          41.700
 108098224.18548  84232356.65746  20570401.2834   20570389.7524
        49.100          37.100
 123815414.55946  96479497.16243  23561271.3294   23561262.2014
        39.600          22.200
 128255034.88946  99938967.38543  24406113.5194   24406106.2674
        40.400          21.700
 106201646.08748  82754555.46946  20209477.8964   20209469.1194
        48.400          41.000
 133615319.52446 104115806.08742  25426149.5584   25426143.1844
        40.800          17.800
 109639001.20048  85432966.61146  20863602.5324   20863592.7594
        48.800          39.300
 09  5 11  1 11  0.0000000  0 11G25G31G 6G 7G19G23G16G11G 3G20G13
 113678649.79548  88580743.87246  21632317.5944   21632308.4664
        49.800          36.300
 135198471.74446                  25727408.7034
        38.900
 113484479.85447  88429480.49446  21595360.7564   21595352.1554
        47.500          36.800
 119754643.47047  93315270.03545  22788544.4254   22788535.1804
        43.900          30.500
 106239123.98347  82783751.06846  20216607.6554   20216596.3594
        47.700          41.700
 108148430.63948  84271478.57846  20579955.2514   20579943.4864
        51.300          37.600
 123882913.79046  96532094.00943  23574116.5994   23574106.6504
        39.800          22.300
 128162930.56146  99867197.92343  24388586.9804   24388578.3204
        41.900          21.500
 106242695.41048  82786541.97946  20217289.2944   20217280.4594
        49.700          40.200
 133665752.63246 104155104.71543  25435744.9134   25435740.5324
        40.900          19.900
 109618675.18148  85417128.18246  20859734.7174   20859725.2964
        49.200          39.100
 09  5 11  1 11 30.0000000  0 11G25G31G 6G 7G19G23G16G11G 3G20G13
 113617618.20348  88533186.83745  21620703.6604   21620694.5914
        50.100          35.600
 135273253.62846 105407670.89053  25741638.8504   25741629.8404
        40.500          22.500
 113551116.57648  88481405.22746  21608041.6114   21608032.7174
        48.000          36.700
 119674781.83147  93253040.20245  22773347.0954   22773337.1464
        43.400          30.000
 106217921.35647  82767229.57546  20212572.8924   20212561.8294
        47.300          41.800
 108199176.56048  84311020.85746  20589612.0854   20589600.2024
        51.200          36.900
 123950349.33146  96584641.18244  23586949.9154   23586939.7914
        39.900          25.300
 128070693.73947  99795325.09243  24371035.3464   24371025.0464
        42.700          21.700
 106284269.47048  82818937.37446  20225200.9314   20225192.0374
        49.600          41.100
 133715920.61246 104194196.73643  25445291.4784   25445286.5704
        38.400          19.000
 109598958.21548  85401764.34346  20855982.1764   20855973.1654
        49.600          38.600
 09  5 11  1 12  0.0000000  0 11G25G31G 6G 7G19G23G16G11G 3G20G13
 113556717.71048  88485731.95245  21609114.7314   21609105.4274
        50.500          35.100
 135348207.30745 105466076.41042  25755902.7744   25755894.4664
        35.200          15.600
 113618120.61248  88533616.18446  21620792.6044   21620783.7104
        48.100          37.100
 119594941.18647  93190826.76845  22758152.5884   22758145.5124
        42.000          30.400
 106197308.37648  82751167.55646  20208649.7984   20208638.9704
        48.100          41.900
 108250461.79148  84350983.38346  20599370.8924   20599359.8304
        51.600          36.900
 124017722.29946  96637139.60943  23599769.8154   23599760.4534
        40.400          22.300
 127978328.41446  99723352.25843  24353458.0424   24353450.1444
        40.200          22.300
 106326368.39548  82851741.75146  20233211.9284   20233203.1524
        50.500          41.200
 133765823.46746 104233082.10843  25454788.1094   25454782.2054
        39.400          18.600
 109579852.98248  85386877.18046  20852346.5714   20852337.3844
        50.700          39.100
 09  5 11  1 12 30.0000000  0 11G25G31G 6G 7G19G23G16G11G 3G20G13
 113495947.21348  88438378.35945  21597550.3464   21597540.8664
        49.800          35.500
                                  25770197.5694
        43.000
 113685486.92947  88586109.42646  21633611.6704   21633603.1874
        47.600          36.900
 119515120.27047  93128628.70845  22742964.3294   22742956.1394
        43.600          31.600
 106177282.26347  82735562.81847  20204839.0074   20204828.3554
        47.800          42.400
 108302281.46948  84391362.36246  20609231.9494   20609220.6534
        50.800          36.700
 124085029.78646  96689587.02443  23612577.5204   23612568.2754
        40.400          22.600
 127885834.17146  99651279.10243  24335857.5244   24335849.6274
        41.200          22.600
 106368986.32148  82884950.53446  20241321.6934   20241312.9754
        50.200          41.300
 133815457.11546 104271757.79243  25464232.4984   25464226.4764
        39.700          19.000
 109561357.48848  85372465.13046  20848827.4124   20848817.8154
        50.200          38.600
 09  5 11  1 13  0.0000000  0 11G25G31G 6G 7G19G23G16G11G 3G20G13
 113435311.54748  88391129.83445  21586011.7754   21586002.4124
        49.800          35.500
 135498597.09755                  25784525.6234
        33.600
 113753216.01947  88638885.35045  21646499.7734   21646491.5244
        47.600          35.900
 119435323.70547  93066449.63945  22727779.5774   22727770.8594
        43.600          30.900
 106157846.50247  82720418.10347  20201140.7644   20201129.9364
        47.000          42.100
 108354636.49748  84432158.50046  20619194.4994   20619183.2614
        50.300          36.500
 124152274.24846  96741985.34743  23625373.6624   23625363.8894
        41.300          21.700
 127793216.60246  99579109.69443  24318232.6654   24318224.0064
        41.600          21.700
 106412125.10948  82918565.19946  20249530.8514   20249521.8414
        50.000          40.600
 133864822.89546 104310224.65742  25473627.3004   25473621.3364
        37.800          16.900
 109543475.04448  85358530.78346  20845424.3324   20845414.6174
        48.200          39.000
 09  5 11  1 13 30.0000000  0 10G25G 6G 7G19G23G16G11G 3G20G13
 113374807.97848  88343984.24245  21574498.5284   21574489.1074
        50.900          35.500
 113821300.60147  88691938.28845  21659455.7144   21659447.3484
        47.400          35.600
 119355548.36647  93004287.11945  22712597.8524   22712590.2474
        42.000          30.200
 106138996.50247  82705729.82447  20197553.6384   20197542.4004
        47.200          42.100
 108407519.78048  84473366.26746  20629258.6924   20629247.1614
        50.300          36.400
 124219450.48946  96794330.48643  23638157.1504   23638147.3194
        41.100          22.200
 127700472.62946  99506841.67243  24300583.1194   24300574.8114
        41.500          20.100
 106455777.40448  82952579.99646  20257837.1584   20257828.2654
        49.600          40.300
 133913914.07546 104348477.56842  25482969.3534   25482963.0384
        39.100          17.400
 109526201.48248  85345070.89946  20842137.3034   20842128.0574
        49.200          38.900
 09  5 11  1 14  0.0000000  0 10G25G 6G 7G19G23G16G11G 3G20G13
 113314443.63448  88296947.13045  21563011.7264   21563002.1884
        48.300          35.600
 113889743.50347  88745270.42245  21672480.4754   21672471.6404
        46.500          35.100
 119275801.07247  92942146.39645  22697422.9654   22697413.1344
        43.300          30.100
 106120737.79947  82691502.29646  20194079.0834   20194067.5524
        47.400          41.900
 108460934.42548  84514988.08046  20639422.4554   20639411.1584
        49.200          36.800
 124286563.34146  96846626.21343  23650928.5884   23650918.6394
        40.900          22.600
 127607609.63946  99434481.11843  24282912.4374   24282904.8334
        40.200          23.900
 106499946.50448  82986997.50346  20266242.5144   20266233.4454
        49.300          40.700
 133962734.42646 104386519.50142  25492258.8964   25492252.6994
        39.200          16.300
 109509542.81948  85332090.14546  20838967.7714   20838957.8224
        48.800          39.000
 09  5 11  1 14 30.0000000  0 10G25G 6G 7G19G23G16G11G 3G20G13
 113254217.97748  88250018.08645  21551550.9434   21551541.2284
        50.600          34.900
 113958539.91148  88798878.02646  21685572.0044   21685563.1104
        48.500          36.300
 119196080.77747  92880026.73345  22682252.3834   22682244.6034
        43.300          30.200
 106103068.07947  82677733.71947  20190716.3594   20190705.2974
        47.100          42.100
 108514875.43648  84557020.02846  20649687.0544   20649675.7574
        50.700          36.300
 124353609.77646  96898870.19643  23663686.9764   23663677.1454
        41.000          21.500
 127514627.82847  99362027.92843  24265218.9934   24265210.6854
        43.700          22.500
 106544627.43948  83021813.84146  20274744.9404   20274736.3404
        49.600          40.700
 134011279.74746 104424347.14342  25501494.8574   25501490.7694
        37.600          17.400
 109493497.04648  85319586.97546  20835913.8254   20835904.1114
        48.000          38.900
 09  5 11  1 15  0.0000000  0 10G25G 6G 7G19G23G16G11G 3G20G13
 113194133.05148  88203198.70245  21540116.7594   21540107.6904
        49.500          35.100
 114027687.40748  88852759.21345  21698730.2414   21698721.2314
        48.600          34.800
 119116389.41347  92817929.64445  22667087.6124   22667079.4224
        43.500          30.800
 106085987.74047  82664424.38847  20187466.1514   20187455.2644
        47.900          42.000
 108569340.80148  84599460.58246  20660051.7274   20660040.0784
        50.200          36.500
 124420589.74846  96951062.45243  23676431.9074   23676422.8964
        39.600          21.700
 127421529.38546  99289483.76243  24247501.7824   24247493.0054
        40.200          21.500
 106589818.89248  83057027.97646  20283344.4544   20283335.9124
        49.800          41.000
 134059548.50845 104461959.24142  25510680.5684   25510676.0704
        33.800          16.900
 109478064.91148  85307561.95846  20832977.1494   20832967.7284
        50.300          39.200
 09  5 11  1 15 30.0000000  0 10G25G 6G 7G19G23G16G11G 3G20G13
 113134192.41148  88156491.75345  21528710.4404   21528701.4884
        49.300          35.200
 114097185.23248  88906913.37045  21711954.8124   21711946.3874
        48.100          34.700
 119036730.04547  92755857.45045  22651929.7344   22651920.2554
        45.400          31.300
 106069498.49247  82651575.64546  20184328.5104   20184317.5064
        47.600          41.900
 108624330.00348  84642309.32946  20670516.0804   20670504.5494
        49.400          36.700
 124487504.34146  97003203.69443  23689165.6014   23689156.5314
        40.700          21.700
 127328318.15246  99216851.71843  24229763.9064   24229753.3714
        41.400          18.600
 106635519.77548  83092639.07846  20292041.7054   20292032.6364
        49.200          40.600
 134107540.49445 104499355.64142  25519813.6934   25519809.0784
        33.600          16.300
 109463248.44248  85296016.67746  20830157.3644   20830147.9434
        49.800          38.600
 09  5 11  1 16  0.0000000  0 10G25G 6G 7G19G23G16G11G 3G20G13
 113074395.63248  88109896.89345  21517331.5694   21517321.9724
        48.600          35.000
 114167028.19048  88961336.46845  21725245.3384   21725237.1484
        48.800          34.200
 118957101.98347  92693809.71745  22636776.5564   22636767.2524
        45.600          30.400
 106053597.96048  82639185.65247  20181302.9174   20181291.4454
        49.600          42.100
 108679838.23748  84685562.50246  20681078.5994   20681067.1854
        50.200          36.700
 124554350.66446  97055291.76743  23701886.6354   23701876.3944
        40.700          22.200
 127234994.08547  99144131.77844  24212005.9164   24211997.9014
        42.200          25.400
 106681725.31248  83128643.42246  20300834.0284   20300825.1344
        51.300          40.400
 134155251.62145 104536533.19242  25528891.9094   25528888.5254
        33.600          14.800
 109449045.66548  85284949.59846  20827454.8224   20827445.7524
        51.000          38.500
 09  5 11  1 16 30.0000000  0 10G25G 6G 7G19G23G16G11G 3G20G13
 113014750.50348  88063420.21845  21505981.4434   21505972.0814
        48.400          35.400
 114237220.12048  89016031.49345  21738602.7974   21738593.6694
        48.100          34.700
 118877513.12247  92631792.44944  22621631.4704   22621621.2284
        46.000          29.600
 106038292.63548  82627259.45346  20178390.0144   20178378.9514
        49.200          41.900
 108735869.33448  84729223.10946  20691741.1334   20691729.4854
        50.600          37.500
 124621134.28346  97107330.97743  23714594.8124   23714585.3914
        40.100          21.300
 127141565.33546  99071330.31243  24194226.5254   24194218.6874
        41.800          22.600
 106728439.82848  83165044.36846  20309723.1554   20309714.4964
        50.200          40.200
 134202686.57845                  25537918.1494
        34.600
 109435463.13048  85274365.81846  20824870.7514   20824860.7434
        51.600          38.300
 09  5 11  1 17  0.0000000  0 10G25G 6G 7G19G23G16G11G 3G20G13
 112955250.43548  88017056.58245  21494659.5144   21494649.8584
        49.100          35.100
 114307749.73348  89070989.64745  21752023.8744   21752015.7424
        48.500          35.400
 118797956.00547  92569799.96745  22606491.0874   22606482.6624
        45.900          30.400
 106023573.47348  82615790.00146  20175589.0854   20175578.1404
        49.300          41.800
 108792411.84048  84773282.22546  20702500.5904   20702489.4104
        50.700          37.100
 124687846.00946  97159314.16043  23727290.0384   23727280.2664
        40.300          20.900
 127048025.41347  98998442.17043  24176427.1394   24176418.1284
        43.700          21.800
 106775651.81648  83201832.94846  20318707.3994   20318698.0954
        50.900          40.600
 134249834.87846 104610233.78352  25546891.1654   25546887.6044
        36.900          15.600
 109422492.26648  85264258.68046  20822402.3284   20822392.6144
        51.300          38.100
 09  5 11  1 17 30.0000000  0 10G25G 6G 7G19G23G16G11G 3G20G13
 112895901.15247  87970810.42845  21483365.5934   21483355.5274
        47.600          35.500
 114378618.37347  89126211.96645  21765510.0304   21765501.3134
        47.000          35.300
 118718436.30747  92507836.62645  22591360.2544   22591350.8914
        45.800          31.100
 106009444.60847  82604780.51947  20172900.5604   20172889.2644
        47.500          42.400
 108849467.32348  84817741.05746  20713357.9404   20713346.7024
        49.900          37.700
 124754489.54446  97211244.20243  23739972.0884   23739962.2574
        40.500          21.100
 126954380.71247  98925472.32943  24158607.0494   24158596.3974
        43.000          21.800
 106823363.10948  83239010.59146  20327786.7174   20327777.7654
        50.600          40.600
 134296698.61346 104646751.16742  25555810.2644   25555804.5944
        38.100          17.400
 109410137.35147  85254631.49646  20820050.4564   20820041.2694
        46.900          38.200
 09  5 11  1 18  0.0000000  0 10G25G 6G 7G19G23G16G11G 3G20G13
 112836705.49347  87924683.98445  21472100.3744   21472091.3054
        47.600          35.200
 114449824.45348  89181697.23045  21779059.9064   21779051.3644
        48.600          34.700
 118638956.50147  92445904.39444  22576235.2704   22576226.0254
        45.800          29.800
 105995906.81247  82594231.61147  20170324.5704   20170313.0394
        47.900          43.100
 108907034.53448  84862598.62746  20724312.3164   20724301.0194
        49.800          37.800
 124821065.27646  97263121.41643  23752640.2884   23752630.5154
        40.000          21.100
 126860634.29447  98852423.28143  24140766.7824   24140757.4784
        42.600          20.900
 106871572.22148  83276576.16546  20336960.0264   20336951.4844
        49.900          39.700
 134343276.99146 104683045.97942  25564673.4114   25564667.9764
        39.000          17.400
 109398399.64648  85245485.25346  20817817.4554   20817807.8584
        48.700          38.400
 09  5 11  1 18 30.0000000  0 10G25G 6G 7G19G23G16G11G 3G20G13
 112777664.42247  87878678.00645  21460864.8774   21460855.8084
        46.900          34.900
 114521364.53548  89237442.76645  21792673.8784   21792665.1024
        49.300          34.700
 118559517.57247  92384004.01145  22561118.4504   22561108.7954
        46.000          30.900
 105982959.21048  82584142.59347  20167860.3114   20167849.4254
        50.200          43.000
 108965109.90548  84907852.18046  20735364.3004   20735352.7694
        49.800          37.800
 124887571.97446  97314944.84343  23765296.2554   23765287.4784
        40.200          22.000
 126766787.68446  98779296.16443  24122908.2604   24122899.6014
        41.800          21.800
 106920275.95748  83314527.14646  20346228.1204   20346219.5194
        50.600          39.800
 134389567.65646 104719116.71942  25573482.7024   25573477.3844
        36.600          15.600
 109387278.68348  85236819.60246  20815701.6604   20815691.7114
        51.100          37.400
 09  5 11  1 19  0.0000000  0 10G25G 6G 7G19G23G16G11G 3G20G13
 112718780.00847  87832794.08745  21449659.5464   21449651.0044
        47.000          35.300
 114593236.04048  89293446.54845  21806350.3214   21806341.5454
        49.100          34.700
 118480121.21047  92322136.80045  22546010.6304   22546000.1544
        46.600          30.700
 105970601.79048  82574513.46547  20165508.5204   20165497.7504
        49.000          42.300
 109023690.54748  84953499.43246  20746511.8364   20746500.5394
        50.300          38.000
 124954009.25146  97366714.14443  23777939.8144   23777930.1004
        40.700          21.700
 126672843.33946  98706092.92543  24105031.3184   24105022.3074
        40.000          21.100
 106969471.91348  83352861.67146  20355590.4134   20355581.3434
        50.000          39.600
 134435569.22046 104754962.21642  25582235.4144   25582231.0924
        36.000          13.900
 109376774.60048  85228634.60846  20813701.8204   20813693.0444
        50.000          37.900
 09  5 11  1 19 30.0000000  0 10G25G 6G 7G19G23G16G11G 3G20G13
 112660055.64347  87787034.88945  21438484.6194   21438475.9604
        46.400          35.600
 114665437.99448  89349707.82445  21820090.1804   21820081.2274
        49.300          35.100
 118400770.10947  92260304.83645  22530909.8524   22530900.9584
        46.000          31.900
 105958836.10048  82565345.42947  20163269.8794   20163258.6414
        49.700          43.100
 109082776.36448  84999540.33546  20757755.6334   20757743.8684
        50.900          37.700
 125020378.27746  97418430.27943  23790568.6674   23790559.3634
        40.600          21.100
 126578804.50146  98632815.98043  24087135.6344   24087126.1544
        41.500          20.400
 107019159.35648  83391579.17446  20365045.4704   20365036.5764
        50.500          39.600
 134481281.12546 104790581.94442  25590934.0564   25590928.0354
        39.000          16.900
 109366889.15748  85220931.69546  20811821.5364   20811811.5294
        50.700          37.300
 09  5 11  1 20  0.0000000  0 10G25G 6G 7G19G23G16G11G 3G20G13
 112601492.84547  87741401.57045  21427340.8104   21427331.4484
        46.200          35.100
 114737967.36148  89406224.22245  21833891.3994   21833883.0924
        48.800          35.400
 118321465.75347  92198509.32745  22515818.1464   22515809.4864
        46.300          31.400
 105947661.39448  82556637.88747  20161143.8984   20161132.2494
        50.700          42.600
 109142364.25248  85045972.45846  20769094.4254   20769082.7774
        50.700          37.300
 125086678.17446  97470092.56743  23803185.1584   23803175.6204
        40.800          20.900
 126484673.39646  98559467.14643  24069223.2814   24069214.3884
        41.800          21.500
 107069335.46448  83430677.44846  20374593.4194   20374584.7014
        50.700          39.700
 134526701.39745 104825974.50242  25599576.8254   25599571.4474
        35.400          16.900
 109357622.21448  85213710.72446  20810057.3644   20810048.1184
        49.400          37.300
 09  5 11  1 20 30.0000000  0 10G25G 6G 7G19G23G16G11G 3G20G13
 112543093.62247  87695895.72145  21416227.5614   21416218.6674
        47.200          35.300
 114810821.64448  89462993.81345  21847755.5474   21847747.2404
        48.900          35.900
 118242210.18047  92136751.81445  22500736.9054   22500726.6044
        47.000          30.900
 105937077.61548  82548390.80747  20159129.8764   20159117.9934
        48.100          42.700
 109202451.51648  85092793.71946  20780528.9804   20780516.9804
        50.900          37.800
 125152908.48946  97521700.61343  23815787.8104   23815778.4474
        40.100          21.300
 126390452.13347  98486048.09443  24051293.0084   24051284.9354
        42.300          21.700
 107119998.12048  83470154.86446  20384233.6714   20384225.3644
        50.400          39.400
 134571828.91246 104861138.85342  25608164.3014   25608158.9244
        39.000          16.900
 109348973.94147  85206971.82546  20808411.5874   20808401.9904
        46.500          37.200
 09  5 11  1 21  0.0000000  0 10G25G 6G 7G19G23G16G11G 3G20G13
 112484860.03147  87650518.93545  21405146.1154   21405137.2224
        47.300          35.700
 114883998.53648  89520014.78345  21861680.3244   21861671.8994
        48.700          35.900
 118163004.96447  92075033.51245  22485665.0674   22485654.5914
        47.300          31.500
 105927084.75048  82540604.19247  20157228.0634   20157216.7664
        50.800          42.400
 109263035.74748  85140002.22646  20792057.3154   20792046.0184
        50.500          37.000
 125219069.30246  97573254.48343  23828377.8824   23828367.9924
        40.200          21.100
 126296143.45347  98412560.92843  24033347.5204   24033338.2164
        42.900          22.900
 107171144.72848  83510009.37446  20393966.6764   20393958.1344
        49.800          39.500
 134616661.78746 104896073.68742  25616695.5424   25616689.8724
        38.100          17.400
 109340944.37048  85200715.04746  20806883.7124   20806874.2324
        48.700          37.100
 09  5 11  1 21 30.0000000  0 10G25G 6G 7G19G23G16G11G 3G20G13
 112426793.12747  87605272.03346  21394096.1104   21394087.6264
        47.400          36.100
 114957494.46348  89577284.34046  21875666.9594   21875658.0074
        48.200          36.200
 118083850.80447  92013355.02145  22470601.3664   22470591.8274
        45.900          31.200
 105917681.70748  82533277.17047  20155438.4464   20155426.8564
        48.800          42.500
 109324113.34048  85187595.16146  20803679.7074   20803668.5874
        50.300          37.300
 125285159.36646  97624753.29243  23840954.0944   23840945.1424
        39.500          20.100
 126201748.65247  98339006.63943  24015385.0994   24015375.6784
        42.500          21.500
 107222772.60748  83550238.89846  20403791.7134   20403782.8194
        51.300          39.100
 134661197.68746 104930777.05042  25625169.9694   25625164.4754
        37.800          17.400
 109333532.81347  85194939.82346  20805472.9064   20805463.8364
        46.300          37.200
 09  5 11  1 22  0.0000000  0 10G25G 6G 7G19G23G16G11G 3G20G13
 112368896.44247  87560157.77746  21383078.6534   21383069.9354
        46.600          36.000
 115031308.49148  89634801.77445  21889712.9614   21889704.1264
        49.300          35.200
 118004751.08447  91951718.96045  22455549.4224   22455540.5284
        47.000          32.500
 105908869.81648  82526410.79347  20153761.6594   20153750.1284
        51.300          42.500
 109385683.46348  85235571.89446  20815396.4544   20815385.0404
        51.300          37.100
 125351179.69946  97676197.67743  23853518.0364   23853509.0264
        40.000          22.000
 126107271.87146  98265388.51143  23997405.5574   23997396.7224
        40.700          21.100
 107274880.73548  83590842.66246  20413707.2154   20413698.4974
        49.700          39.600
 134705436.80846 104965249.13742  25633589.9274   25633583.3784
        38.300          16.300
 109326740.96248  85189647.48346  20804181.0554   20804171.3414
        49.500          36.700
 09  5 11  1 22 30.0000000  0 10G25G 6G 7G19G23G16G11G 3G20G13
 112311171.02647  87515176.98046  21372094.1314   21372085.0614
        46.600          36.400
 115105437.02348  89692564.28846  21903818.9934   21903810.5684
        48.200          36.500
 117925706.63747  91890125.95245  22440508.4304   22440498.1304
        47.600          31.900
 105900647.88548  82520004.11447  20152197.1814   20152185.4154
        50.900          42.500
 109447742.55048  85283929.63046  20827205.8214   20827194.4654
        50.200          37.700
 125417129.09646  97727586.83243  23866066.5254   23866057.9834
        38.600          22.000
 126012714.12746  98191707.23643  23979412.1564   23979402.1494
        39.900          20.900
 107327465.04748  83631817.46346  20423713.7764   20423704.4724
        50.000          39.000
 134749376.54446 104999487.99043  25641950.1044   25641944.9034
        40.200          19.600
 109320567.90848  85184837.34046  20803006.1164   20802996.3444
        48.600          36.500
 09  5 11  1 23  0.0000000  0 10G25G 6G 7G19G23G16G11G 3G20G13
 112253619.04147  87470331.31945  21361141.6464   21361133.3974
        47.800          35.700
 115179877.67848  89750570.00146  21917984.6924   21917976.0324
        49.500          36.100
 117846719.28247  91828577.40845  22425476.9834   22425467.6204
        47.500          31.600
 105893015.87148  82514057.11547  20150744.9334   20150733.0504
        48.300          42.700
 109510288.08248  85332666.41246  20839107.8854   20839096.4714
        49.900          37.000
 125483007.55446  97778920.68243  23878603.3134   23878594.3614
        38.800          21.700
 125918078.22546  98117965.04643  23961403.6504   23961393.9944
        40.300          22.200
 107380523.43548  83673161.67046  20433810.5334   20433801.6984
        49.900          38.300
 134793015.19645 105033492.21442  25650254.5884   25650248.8594
        35.800          16.300
 109315013.68147  85180509.38246  20801948.8044   20801939.3824
        46.500          36.300
 09  5 11  1 23 30.0000000  0 10G25G 6G 7G19G23G16G11G 3G20G13
 112196242.22247  87425622.13846  21350223.7984   21350214.7874
        47.900          36.900
 115254627.79148  89808816.86246  21932209.0014   21932200.2834
        49.400          36.100
 117767790.77548  91767074.75445  22410457.6904   22410447.8004
        48.000          32.400
 105885972.96048  82508569.16647  20149404.6144   20149393.0254
        50.200          42.300
 109573317.14648  85381779.98346  20851101.7114   20851090.1804
        49.600          36.200
 125548814.33746  97830198.72343  23891126.5814   23891117.3364
        38.500          22.600
 125823366.22647  98044163.63743  23943381.3634   23943371.8844
        42.700          22.600
 107434053.64248  83714873.53246  20443997.1344   20443987.8894
        48.900          38.500
 134836351.38746 105067260.74142  25658501.4614   25658495.7914
        37.500          16.300
 109310078.24547  85176663.61046  20801010.0294   20801000.5494
        47.500          36.500
 09  5 11  1 24  0.0000000  0 10G25G 6G 7G19G23G16G11G 3G20G13
 112139043.19947  87381051.50246  21339338.8344   21339330.2924
        47.800          36.900
 115329685.32948  89867303.27245  21946492.2064   21946483.3124
        49.800          35.900
 117688923.41248  91705619.71945  22395449.3604   22395440.4664
        48.000          33.500
 105879519.99548  82503540.90447  20148176.4094   20148165.0534
        50.800          43.100
 109636828.03048  85431268.99446  20863187.6994   20863176.4024
        49.400          36.200
 125614549.96746  97881421.30043  23903636.1634   23903627.1524
        39.900          21.800
 125728581.25346  97970305.35043  23925342.7134   23925333.9374
        40.500          20.400
 107488053.48848  83756951.34346  20454272.5714   20454263.3844
        48.700          39.000
 134879384.51146 105100793.16442  25666690.5814   25666684.5594
        37.900          17.400
 109305762.59748  85173300.79046  20800189.1124   20800179.4564
        48.000          36.900
 09  5 11  1 24 30.0000000  0 10G25G 6G 7G19G23G16G11G 3G20G13
 112082024.42747  87336621.31646  21328488.2454   21328480.0554
        47.300          37.100
 115405048.24448  89926027.64845  21960833.0834   21960824.3074
        49.100          35.600
 117610119.16448  91644213.88045  22380453.8474   22380444.7784
        48.000          33.800
 105873657.30947  82498972.60447  20147060.8324   20147049.3014
        47.900          42.100
 109700818.37848  85481131.60046  20875364.6154   20875353.3194
        48.800          36.000
 125680214.74246  97932588.66043  23916129.9544   23916122.6424
        38.700          22.200
 125633725.78247  97896392.03443  23907293.1074   23907282.2214
        42.600          21.300
 107542521.01348  83799393.58146  20464637.4584   20464628.5054
        48.700          38.500
 134922113.30046 105134088.42442  25674821.2804   25674816.0204
        37.400          15.600
 109302066.22647  85170420.51146  20799484.9204   20799476.0854
        46.900          36.100
 09  5 11  1 25  0.0000000  0 11G25G 6G 7G19G28G23G16G11G 3G20G13
 112025187.82247  87292333.08646  21317673.5734   21317664.3284
        47.600          36.800
 115480713.88848  89984987.89346  21975231.7894   21975223.1304
        49.200          36.600
 117531379.99148  91582858.72445  22365469.8734   22365459.9834
        48.800          33.100
 105868383.38748  82494863.07647  20146057.3314   20146045.6834
        51.800          42.300
 136240838.17056                  25925769.5224
        37.100
 109765285.29048  85531365.56446  20887632.1234   20887620.5344
        49.800          36.000
 125745808.28546  97983700.48343  23928613.0584   23928604.3994
        40.300          22.500
 125538802.43747  97822425.91443  23889230.0614   23889220.2884
        42.800          22.000
 107597453.84048  83842198.40346  20475090.6634   20475082.0634
        49.100          38.000
 134964536.07846 105167145.19742  25682894.4344   25682887.8264
        38.400          15.600
 109298989.42348  85168023.02046  20798899.9344   20798890.5134
        49.800          36.900
 09  5 11  1 25 30.0000000  0 11G25G 6G 7G19G28G23G16G11G 3G20G13
 111968534.31847  87248187.53846  21306892.5044   21306883.2004
        46.900          37.300
 115556678.57248  90044181.17246  21989687.4704   21989678.9284
        49.500          36.100
 117452706.70248  91521554.91345  22350498.8264   22350489.7574
        48.500          33.600
 105863696.86948  82491211.27347  20145165.6164   20145153.4984
        50.300          42.500
 136187544.32055                  25915627.9734
        34.800
 109830225.24548  85581968.13645  20899990.0674   20899978.4774
        49.600          35.400
 125811328.93746  98034755.57343  23941081.6364   23941071.5714
        40.200          21.500
 125443812.62846  97748407.98043  23871153.7774   23871144.4734
        41.400          22.200
 107652848.71547  83885363.25946  20485631.7734   20485623.1144
        47.900          37.800
 135006650.29045 105199961.54642  25690906.2564   25690902.1684
        34.900          16.900
 109296530.98448  85166107.37946  20798431.7844   20798422.6564
        48.900          36.600
 09  5 11  1 26  0.0000000  0 11G25G 6G 7G19G28G23G16G11G 3G20G13
 111912067.82547  87204187.70346  21296147.1004   21296137.5034
        47.700          37.500
 115632941.53948  90103606.87646  22004199.8594   22004191.0834
        49.700          36.800
 117374102.82648  91460305.19545  22335540.7844   22335531.3634
        48.100          33.300
 105859599.99048  82488018.91647  20144385.6274   20144374.2724
        50.800          42.400
 136134347.36746                  25905504.7194
        37.100
 109895637.31348  85632938.59446  20912437.3304   20912426.0334
        49.800          36.100
 125876778.66646  98085755.36144  23953536.4744   23953526.4084
        40.100          24.100
 125348760.66046  97674341.59643  23853065.1144   23853055.6344
        39.900          21.100
 107708704.35948  83928887.15046  20496261.1774   20496252.1084
        48.400          37.300
 135048456.35946 105232537.75342  25698862.3414   25698857.3744
        38.600          17.400
 109294692.45548  85164674.77346  20798082.2824   20798072.5684
        50.400          36.700
 09  5 11  1 26 30.0000000  0 12G25G 8G 6G 7G19G28G23G16G11G 3G20G13
 111855788.27847  87160333.54646  21285437.4114   21285428.2254
        47.000          37.000
 135658072.20855                  25814872.7984
        30.700
 115709498.16748  90163261.40646  22018768.0724   22018759.5304
        50.000          36.000
 117295568.19948  91399109.43945  22320596.5164   22320587.0364
        49.800          33.600
 105856090.03447  82485283.91947  20143717.7584   20143706.6964
        47.600          42.500
 136081245.25746                  25895400.7754
        37.300
 109961516.60148  85684273.10146  20924973.7304   20924962.0824
        49.100          36.100
 125942155.04346  98136697.99443  23965976.1564   23965967.2634
        39.200          22.600
 125253646.65847  97600226.88543  23834966.3764   23834957.0724
        42.300          22.000
 107765016.47248  83972766.72946  20506976.6604   20506967.7084
        48.100          37.800
 135089951.20546 105264871.40342  25706760.1794   25706752.9854
        39.000          17.400
 109293471.95847  85163723.74646  20797850.0264   20797840.1944
        47.600          37.100
 09  5 11  1 27  0.0000000  0 12G25G 8G 6G 7G19G28G23G16G11G 3G20G13
 111799700.68348  87116628.95946  21274764.3514   21274755.0474
        48.200          38.100
                                  25797603.2034
        29.400
 115786349.02448  90223145.19745  22033392.3654   22033383.8234
        50.000          35.700
 117217107.51748  91337971.30845  22305665.9384   22305655.9904
        49.300          33.800
 105853169.48848  82483008.18447  20143162.4424   20143150.3254
        50.800          42.700
                                  25885315.4994
        29.100
 110027863.39948  85735971.92046  20937599.1884   20937587.2474
        49.800          36.600
 126007460.88746  98187585.63943  23978403.8634   23978394.5594
        40.100          21.500
 125158476.21646  97526068.11043  23816855.0954   23816845.0874
        40.100          21.100
 107821785.71348  84017002.51246  20517779.5044   20517770.6694
        48.800          37.600
 135131136.00346                  25714597.2874
        37.800
 109292872.16048  85163256.39246  20797735.4714   20797726.0504
        50.200          37.200
 09  5 11  1 27 30.0000000  0 11G25G 8G 6G 7G19G23G16G11G 3G20G13
 111743805.37147  87073074.20146  21264128.1034   21264118.5644
        47.800          37.700
 135476425.11655                  25780306.4584
        30.500
 115863489.63148  90283254.77046  22048071.8784   22048062.9264
        49.100          36.000
 117138721.13948  91276891.05545  22290749.1884   22290739.4154
        49.500          33.800
 105850835.71048  82481189.68547  20142717.4484   20142706.3274
        49.200          42.700
 110094673.28748  85788031.56846  20950312.3264   20950301.0304
        49.800          36.800
 126072694.25346  98238416.82643  23990818.1174   23990807.4654
        39.700          21.800
 125063250.21147  97451866.14543  23798733.5534   23798725.1284
        42.600          22.800
 107879007.32148  84061590.79246  20528668.2504   20528659.5914
        48.800          37.900
 135172007.73246 105328796.69653  25722373.5354   25722367.8064
        39.000          19.600
 109292891.01848  85163271.10546  20797739.2274   20797729.5134
        49.900          37.100
 09  5 11  1 28  0.0000000  0 12G25G 8G 6G 7G19G28G23G16G11G 3G20G13
 111688098.71348  87029666.44446  21253526.8344   21253517.6474
        48.500          38.000
 135385374.25755                  25762980.1224
        30.300
 115940911.92448  90343583.83545  22062804.7994   22062795.9064
        49.800          35.700
 117060405.19148  91215865.70245  22275846.5584   22275836.4924
        50.000          34.100
 105849082.82048  82479823.82446  20142384.3224   20142372.3814
        49.800          41.900
                                  25865193.8274
        36.600
 110161937.84548  85840445.52046  20963112.6314   20963101.2174
        49.800          36.300
 126137849.24046  98289186.96143  24003216.1464   24003206.9594
        36.400          21.300
 124967965.32247  97377618.26344  23780603.1034   23780592.7444
        43.400          24.700
 107936673.41148  84106525.42646  20539642.4294   20539633.4184
        48.100          37.600
 135212559.26146 105360395.38742  25730091.5534   25730084.8874
        37.700          16.900
 109293522.36648  85163763.09746  20797859.6044   20797849.8314
        49.600          37.600
 09  5 11  1 28 30.0000000  0 12G25G 8G 6G 7G19G28G23G16G11G 3G20G13
 111632594.17748  86986416.17646  21242965.1114   21242955.4554
        48.600          38.000
 135294146.60154                  25745620.0464
        28.600
 116018624.65448  90404139.21045  22077592.6314   22077584.0304
        49.400          34.900
 116982172.66548  91154905.33145  22260959.2154   22260949.6764
        49.300          34.900
 105847921.98947  82478919.30347  20142163.5174   20142151.6934
        47.500          42.400
                                  25855161.5384
        30.700
 110229665.80048  85893220.55246  20976000.9744   20975989.2684
        50.700          37.000
 126202937.06946  98339904.73243  24015601.8824   24015592.6374
        38.400          21.500
 124872635.38947  97303335.28343  23762461.9364   23762451.1674
        44.000          20.900
 107994792.88748  84151813.35146  20550701.9794   20550692.4994
        49.000          37.800
 135252800.54645 105391752.32442  25737749.1564   25737743.7204
        32.800          13.900
 109294777.70848  85164741.30446  20798098.4794   20798088.9414
        48.100          37.700
 09  5 11  1 29  0.0000000  0 12G25G 8G 6G 7G19G28G23G16G11G 3G20G13
 111577289.76747  86943321.86246  21232440.6554   21232431.5854
        47.300          37.700
                                  25728234.9974
        32.600
 116096621.24548  90464915.77945  22092435.3414   22092426.2714
        48.700          35.800
 116904021.65648  91094008.49145  22246087.4294   22246077.8324
        48.900          34.500
 105847348.21948  82478472.23847  20142054.0214   20142042.4324
        51.000          42.500
 135817156.75856                  25845145.6634
        36.900
 110297850.14848  85946351.21246  20988976.5244   20988964.5824
        51.500          37.200
 126267953.53246  98390566.92143  24027973.6524   24027964.5244
        38.500          21.300
 124777258.87047  97229015.97044  23744311.4004   23744303.0934
        43.500          24.200
 108053358.86948  84197449.19446  20561846.5894   20561838.3404
        49.400          37.700
 135292726.11744                  25745344.9634
        29.100
 109296652.48648  85166202.18146  20798455.4094   20798445.6954
        50.800          37.800
 09  5 11  1 29 30.0000000  0 12G25G 8G 6G 7G19G28G23G16G11G 3G20G13
 111522181.68948  86900380.52646  21221954.5954   21221945.1164
        48.000          37.700
 135111260.95255                  25710818.0894
        33.700
 116174893.36048  90525907.05045  22107330.2104   22107320.6714
        49.200          35.600
 116825948.07748  91033172.01545  22231230.5534   22231221.0154
        48.800          34.600
 105847354.98848  82478477.54347  20142055.4244   20142044.1864
        50.100          42.600
 135764614.89045                  25835144.9204
        32.000
 110366482.25448  85999830.80046  21002036.3034   21002024.7134
        50.100          37.400
 126332892.80446  98441168.97443  24040331.2264   24040322.3324
        38.900          21.300
 124681832.42247  97154657.80043  23726153.3964   23726143.9174
        44.400          22.600
 108112363.11047  84243426.53846  20573074.8854   20573065.5224
        47.900          37.200
 135332329.04446                  25752882.8954
        37.300
 109299140.71048  85168141.08946  20798928.4504   20798919.2054
        49.100          38.300
 09  5 11  1 30  0.0000000  0 12G25G 8G 6G 7G19G28G23G16G11G 3G20G13
 111467279.58047  86857599.68146  21211506.9274   21211497.4474
        47.700          37.700
 135019575.33644                  25693368.3144
        27.600
 116253445.94848  90587116.88345  22122277.6164   22122268.6054
        49.400          34.200
 116747961.60748  90972403.40645  22216390.3714   22216380.7154
        48.700          34.400
 105847949.83347  82478941.09447  20142168.8274   20142157.1794
        47.500          42.800
 135712168.41455                  25825166.9694
        33.700
 110435566.90848  86053662.98546  21015182.3494   21015171.2284
        49.900          37.300
 126397761.87246  98491716.30743  24052676.1734   24052667.1624
        38.400          20.400
 124586365.97447  97080268.42144  23707986.1364   23707977.4774
        44.200          24.700
 108171810.81248  84289749.43846  20584387.3744   20584378.4214
        48.000          37.300
 135371615.52145 105484333.55252  25760358.0094   25760351.6954
        35.000          17.400
 109302249.38448  85170563.43846  20799519.8614   20799510.3234
        48.100          38.100
 09  5 11  1 30 30.0000000  0 12G25G 8G 6G 7G19G28G23G16G11G 3G20G13
 111412583.00947  86814979.00446  21201098.2054   21201088.5504
        47.700          38.400
 134927734.97545                  25675893.8354
        30.700
 116332273.89848  90648541.25845  22137278.1124   22137269.7464
        48.700          34.200
 116670061.72948  90911702.24145  22201566.4434   22201557.0224
        48.400          34.600
 105849129.02047  82479859.96547  20142393.3244   20142381.6174
        47.300          42.700
 135659811.67445                  25815204.4254
        33.700
 110505098.82948  86107843.72146  21028414.5664   21028402.8594
        50.400          37.300
 126462558.59146  98542207.26543  24065005.8984   24064996.5354
        37.900          20.400
 124490859.89447  97005848.18343  23689812.7504   23689802.8014
        45.000          22.800
 108231697.06748  84336414.06346  20595782.9104   20595774.0754
        48.500          37.900
 135410581.41845                  25767772.8244
        32.400
 109305975.65848  85173467.04446  20800229.0894   20800219.6104
        48.500          38.500
 09  5 11  1 31  0.0000000  0 12G25G 8G 6G 7G19G28G23G16G11G 3G20G13
 111358093.85848  86772519.95246  21190729.3324   21190719.7354
        48.000          38.400
 134835740.43645                  25658384.7044
        32.000
 116411374.44448  90710178.05245  22152330.8664   22152322.0314
        48.400          34.600
 116592250.18548  90851069.93245  22186759.5454   22186748.8934
        48.700          34.600
 105850891.62848  82481233.45447  20142728.6214   20142717.0314
        48.300          43.100
 135607545.24446                  25805256.6764
        37.900
 110575075.05448  86162370.66046  21041730.2864   21041718.8724
        49.400          37.600
 126527282.41346  98592641.40243  24077321.7754   24077312.8224
        36.000          19.900
 124395316.28947  96931398.66243  23671630.2684   23671620.7294
        44.300          22.300
 108292018.87247  84383418.08846  20607261.9404   20607253.0464
        47.700          37.800
 135449225.78845                  25775126.5444
        35.000
 109310319.02848  85176851.51046  20801055.7904   20801046.0764
        49.100          38.700
 09  5 11  1 31 30.0000000  0 12G25G 8G 6G 7G19G28G23G16G11G 3G20G13
 111303811.61448  86730222.11846  21180399.6334   21180390.2714
        49.000          37.800
 134743589.84445                  25640850.5084
        34.400
 116490742.53548  90772023.33845  22167433.9954   22167425.1024
        48.700          34.400
 116514526.01848  90790505.70545  22171968.6194   22171958.4954
        48.500          33.700
 105853234.73847  82483059.27547  20143174.3874   20143162.9734
        47.500          42.400
 135555365.18845                  25795328.4084
        34.900
 110645490.10248  86217239.53446  21055129.8654   21055118.2174
        50.500          37.200
 126591930.80346  98643016.76643  24089626.3334   24089615.0364
        38.000          20.100
 124299735.16247  96856919.92744  23653442.7834   23653433.1864
        45.600          27.500
 108352770.60448  84430757.12046  20618823.2014   20618813.7214
        49.600          38.100
 135487544.56645                  25782417.6274
        31.300
 109315276.30448  85180714.34046  20801998.7774   20801989.4154
        51.100          38.700
 09  5 11  1 32  0.0000000  0 12G25G 8G 6G 7G19G28G23G16G11G 3G20G13
 111249743.31448  86688091.00346  21170110.9704   21170101.4904
        49.000          37.600
 134651288.96045                  25623285.8634
        33.700
 116570380.59148  90834078.97445  22182588.4024   22182579.7434
        48.600          34.200
 116436896.12148  90730014.93845  22157195.9024   22157187.3604
        49.200          34.900
 105856162.59248  82485340.74447  20143731.2904   20143719.7004
        48.500          42.700
 135503275.90944                  25785416.2274
        29.400
 110716345.99848  86272451.93046  21068613.1974   21068601.6664
        50.900          36.800
 126656508.40846  98693336.97943  24101914.4074   24101904.4004
        37.200          20.900
 124204124.07147  96782417.90943  23635247.9074   23635239.5414
        44.700          22.800
 108413954.94448  84478433.24246  20630465.8244   20630456.6964
        48.300          38.100
 135525541.34845                  25789648.8184
        30.100
 109320852.19448  85185059.20446  20803059.6434   20803050.0464
        50.200          38.600
 09  5 11  1 32 30.0000000  0 12G25G 8G 6G 7G19G28G23G16G11G 3G20G13
 111195888.93648  86646126.58846  21159862.2474   21159853.2954
        48.900          37.100
 134558836.89745                  25605693.7544
        35.400
 116650283.68848  90896341.14045  22197793.2024   22197784.2504
        48.100          33.900
 116359360.33448  90669597.51245  22142441.4144   22142431.2904
        48.800          34.900
 105859672.06848  82488075.43047  20144399.3304   20144387.7404
        49.900          42.300
 135451268.74955                  25775519.4664
        34.200
 110787637.70548  86328003.92546  21082179.4284   21082168.0144
        50.600          36.200
 126721012.96046  98743600.25343  24114188.6514   24114179.2304
        36.900          20.600
 124108483.13347  96707892.52644  23617048.6794   23617038.6144
        45.400          24.400
 108475567.11748  84526442.73646  20642190.0814   20642181.2464
        49.700          38.100
 135563212.70145                  25796817.8744
        33.400
 109327043.73148  85189883.80646  20804238.1804   20804228.7004
        52.600          38.500
 09  5 11  1 33  0.0000000  0 11G25G 8G 6G 7G19G28G23G16G11G 3G13
 111142250.93948  86604330.77546  21149655.3124   21149645.7734
        48.100          37.500
 134466234.77645                  25588070.9604
        35.900
 116730449.97548  90958808.37245  22213048.6924   22213040.2674
        48.500          33.700
 116281921.54548  90609255.67645  22127705.0344   22127695.6724
        48.800          34.600
 105863762.99248  82491263.17547  20145177.8194   20145166.1704
        48.600          42.000
 135399355.25445                  25765639.6884
        35.400
 110859362.82448  86383893.63646  21095827.6584   21095816.4784
        49.400          36.500
 126785444.77546  98793806.83643  24126449.2344   24126440.2234
        36.900          20.100
 124012815.48247  96633346.38944  23598842.8384   23598834.0624
        44.700          24.700
 108537605.13647  84574784.06346  20653995.1554   20653986.4374
        47.600          38.500
 109333850.96148  85195188.16546  20805533.4454   20805523.7894
        51.200          39.000
 09  5 11  1 33 30.0000000  0 12G25G 8G 6G 7G19G28G23G16G11G 3G20G13
 111088830.26948  86562704.31746  21139490.0164   21139480.5954
        48.300          37.300
 134373482.26446                  25570420.7804
        37.600
 116810875.51448  91021477.63245  22228352.7804   22228344.4724
        48.200          33.400
 116204580.08348  90548989.63745  22112987.6794   22112976.7934
        49.100          34.400
 105868433.33448  82494902.42847  20146066.5684   20146055.0964
        49.300          42.400
 135347527.54045 105465577.11952  25755776.6294   25755771.0174
        35.500          17.400
 110931517.41948  86440118.01946  21109558.0864   21109547.3764
        50.200          36.100
 126849802.65846  98843955.84743  24138696.4454   24138686.7904
        39.200          21.700
 123917122.74447  96558780.67343  23580633.3514   23580623.5204
        45.100          22.800
 108600065.09248  84623454.18446  20665881.4314   20665872.3034
        49.000          38.500
 135637549.43455                  25810967.4384
        30.300
 109341272.01148  85200970.81046  20806945.8384   20806936.1834
        52.000          39.400
 09  5 11  1 34  0.0000000  0 11G25G 8G 6G 7G19G28G23G16G11G 3G13
 111035629.85847  86521249.47446  21129366.0274   21129356.6054
        47.400          36.900
 134280580.97046                  25552742.7214
        37.000
 116891558.65648  91084347.61945  22243706.5894   22243698.1054
        48.400          33.300
 116127338.83748  90488801.69545  22098289.0264   22098279.5464
        49.100          34.700
 105873683.20147  82498993.25747  20147065.7504   20147053.9854
        47.600          43.100
 135295785.55745                  25745932.2104
        33.000
 111004099.11748  86496675.18845  21123371.0904   21123359.3254
        49.700          35.900
 126914087.60946  98894047.96943  24150928.7494   24150919.3874
        38.600          21.800
 123821408.11947  96484197.96544  23562419.6624   23562410.8854
        44.200          25.600
 108662945.10348  84672451.61046  20677847.0544   20677837.9254
        48.500          38.600
 109349307.35248  85207232.12846  20808474.9184   20808465.3794
        48.600          39.100
 09  5 11  1 34 30.0000000  0 11G25G 8G 6G 7G19G28G23G16G11G 3G13
 110982651.46347  86479967.63846  21119284.8364   21119275.5914
        47.600          37.000
 134187531.46246 104561675.29652  25535036.1374   25535029.0024
        39.900          17.800
 116972496.60848  91147416.16445  22259108.8014   22259099.7904
        49.100          33.700
 116050199.63848  90428693.28545  22083609.7524   22083599.8034
        48.800          34.900
 105879511.31548  82503534.66447  20148174.4834   20148162.8354
        48.400          42.400
 135244128.35646 105385007.51352  25736102.8404   25736095.1774
        36.900          16.300
 111077104.33148  86553562.38545  21137263.1214   21137251.9424
        49.300          35.900
 126978298.90446  98944082.76243  24163148.0484   24163138.4514
        40.300          21.500
 123725674.00347  96409600.05443  23544201.5024   23544192.6674
        44.300          22.900
 108726242.46448  84721774.23546  20689892.3444   20689882.9234
        48.200          39.200
 109357955.96448  85213971.32246  20810120.5634   20810111.0254
        50.800          38.900
 09  5 11  1 35  0.0000000  0 12G25G 8G 6G 7G19G28G23G16G11G 3G20G13
 110929897.68147  86438860.82746  21109245.7164   21109236.4714
        46.500          37.000
 134094334.99246 104489054.61542  25517301.0254   25517295.2374
        39.300          16.300
 117053687.34047  91210681.68145  22274558.6424   22274549.9254
        47.800          32.100
 115973164.72347  90368666.13945  22068950.6574   22068940.9434
        47.800          34.900
 105885917.18248  82508526.26547  20149393.5734   20149382.1014
        48.800          42.700
 135192555.46246 105344820.95042  25726288.5194   25726282.6144
        37.400          14.800
 111150531.56848  86610778.43646  21151235.8524   21151224.5564
        49.600          36.200
 127042437.03346  98994060.52943  24175352.9764   24175343.9654
        40.000          21.700
 123629923.53047  96334989.33243  23525981.0864   23525970.9614
        44.600          22.500
 108789954.74948  84771420.17946  20702016.0434   20702006.8574
        48.700          38.500
                                  25831724.0484
        33.800
 109367217.51248  85221188.12346  20811883.6704   20811873.8974
        50.600          39.500
 09  5 11  1 35 30.0000000  0 12G25G 8G 6G 7G19G28G23G16G11G 3G20G13
 110877371.65847  86397931.48446  21099250.7284   21099241.6584
        47.000          37.000
 134000993.09746 104416320.76943  25499539.9534   25499532.7594
        40.500          18.600
 117135129.10547  91274142.80145  22290056.6494   22290047.9904
        46.700          32.100
 115896237.69747  90308723.04645  22054312.0784   22054301.8954
        47.200          34.900
 105892901.34548  82513968.48647  20150722.7244   20150710.9594
        50.200          42.300
 135141067.30845                  25716489.0574
        32.200
 111224378.58948  86668321.58645  21165288.0094   21165276.6544
        48.300          35.700
 127106503.39446  99043982.35843  24187544.4094   24187534.9884
        41.100          22.200
 123534160.17147  96260368.63343  23507757.8224   23507748.5774
        44.100          22.900
 108854080.13148  84821388.02446  20714218.8254   20714209.6974
        49.600          38.800
 135782321.16754                  25838516.5524
        28.900
 109377092.54448  85228882.97846  20813762.9904   20813752.6314
        50.900          39.400
 09  5 11  1 36  0.0000000  0 12G25G 8G 6G 7G19G28G23G16G11G 3G20G13
 110825072.47447  86357178.90646  21089298.3674   21089289.4734
        47.000          37.200
 133907503.92346 104343472.11642  25481747.5604   25481742.4764
        36.500          16.300
 117216816.44347  91337795.27245  22305600.9034   22305592.3034
        47.800          32.200
 115819416.99348  90248862.79545  22039693.6794   22039683.7894
        48.600          35.100
 105900459.59248  82519858.05347  20152160.7474   20152149.5094
        49.200          42.600
 135089664.89156                  25706708.5384
        37.100
 111298639.11248  86726186.94045  21179419.2064   21179408.3204
        48.500          35.600
 127170494.34846  99093845.43843  24199722.4574   24199712.3324
        40.800          22.200
 123438383.44447  96185737.47043  23489531.9094   23489521.6674
        43.900          21.700
 108918613.08948  84871673.45046  20726499.1394   20726490.1294
        48.900          39.500
                                  25845244.9244
        34.500
 109387577.27048  85237052.90746  20815757.1924   20815747.7124
        49.900          39.200
 09  5 11  1 36 30.0000000  0 11G25G 8G 6G 7G19G28G23G16G11G 3G13
 110773004.77747  86316606.71046  21079389.9904   21079380.8624
        47.200          36.900
 133813871.29046 104270511.68642  25463930.7674   25463925.2154
        36.100          17.400
 117298749.40147  91401639.14645  22321192.4424   22321183.2554
        47.300          32.600
 115742707.59347  90189089.27845  22025095.7884   22025085.9574
        46.600          35.500
 105908593.76548  82526196.38747  20153708.2084   20153697.3804
        50.100          42.900
 135038340.16445                  25696940.8414
        34.700
 111373312.82348  86784374.25845  21193629.5214   21193618.0494
        49.000          35.700
 127234412.96846  99143652.15543  24211885.0424   24211876.1484
        41.600          23.800
 123342598.89147  96111100.25344  23471303.8494   23471295.7764
        43.800          24.300
 108983553.96548  84922276.73646  20738857.1274   20738847.4724
        50.200          39.500
 109398673.64448  85245699.44546  20817869.3344   20817859.5034
        49.900          39.000
 09  5 11  1 37  0.0000000  0 11G25G 8G 6G 7G19G28G23G16G11G 3G13
 110721170.74847  86276216.58146  21069526.7494   21069516.9764
        46.700          36.900
 133720096.13046 104197440.16942  25446086.8454   25446080.9994
        36.300          16.900
 117380925.39948  91465672.40245  22336830.1764   22336820.8134
        48.200          32.400
 115666111.36147  90129403.95746  22010520.2434   22010511.1154
        46.700          36.000
 105917302.65847  82532982.56247  20155365.7934   20155354.6724
        47.700          43.100
 134987097.72246 105184722.81853  25687189.6564   25687183.5174
        38.800          18.300
 111448396.79548  86842881.25645  21207917.5354   21207906.0044
        49.500          35.800
 127298258.81047  99193402.14643  24224035.1724   24224025.5164
        42.600          22.600
 123246808.76447  96036458.66143  23453076.3244   23453066.3754
        43.600          21.800
 109048899.63848  84973195.44846  20751291.9694   20751282.5484
        49.700          39.400
 109410380.56248  85254821.73046  20820096.6514   20820087.0544
        48.300          39.200
 09  5 11  1 37 30.0000000  0 11G25G 8G 6G 7G19G28G23G16G11G 3G13
 110669572.01448  86236009.79846  21059708.0054   21059697.9984
        49.000          37.900
 133626178.65845                  25428213.2314
        35.900
 117463341.62448  91529892.84445  22352513.6614   22352504.6514
        49.000          33.000
 115589629.90447  90069808.05645  21995965.5904   21995956.1694
        46.800          35.100
 105926585.01348  82540215.57047  20157131.8724   20157120.5164
        49.800          42.700
 134935935.97746 105144844.67253  25677452.9104   25677444.8964
        39.200          19.900
 111523887.69948  86901705.33945  21222283.0344   21222271.4444
        48.100          35.700
 127362031.63046  99243095.25143  24236171.1954   24236160.6614
        39.200          22.600
 123151015.59547  95961814.69143  23434847.4694   23434838.3994
        43.500          22.800
 109114647.35648  85024427.45146  20763803.2994   20763793.9954
        49.200          39.500
 109422697.28248  85264419.17846  20822440.5444   20822430.7134
        49.500          38.500
 09  5 11  1 38  0.0000000  0 11G25G 8G 6G 7G19G28G23G16G11G 3G13
 110618209.73247  86195987.25046  21049933.6924   21049924.1544
        47.900          37.700
 133532119.07346 104050959.52352  25410313.8804   25410307.0964
        36.500          16.900
 117545994.39747  91594297.60145  22368241.9634   22368232.7184
        47.200          33.600
 115513264.41147  90010302.51645  21981434.4004   21981424.6864
        46.300          35.600
 105936438.92348  82547893.96847  20159007.3084   20158995.6594
        48.500          43.000
 134884853.15046 105105040.05842  25667732.2054   25667726.3594
        38.100          17.800
 111599781.61148  86960843.47445  21236725.2114   21236713.5634
        49.400          35.100
 127425730.44246  99292730.65943  24248291.2844   24248282.2744
        39.100          22.600
 123055220.82047  95887169.53243  23416619.1914   23416608.5984
        44.600          21.700
 109180793.01148  85075969.52346  20776390.1324   20776381.1804
        50.000          39.000
 109435621.86248  85274490.29546  20824899.8704   20824889.9804
        50.700          38.700
 09  5 11  1 38 30.0000000  0 11G25G 8G 6G 7G19G28G23G16G11G 3G13
 110567087.74247  86156151.95846  21040205.3724   21040195.8924
        47.600          37.800
 133437920.01646 103977557.71342  25392388.7144   25392382.6334
        38.100          16.300
 117628882.98447  91658886.11545  22384014.2904   22384005.9824
        47.000          33.100
 115437018.82347  89950890.39845  21966925.5684   21966915.3264
        47.000          35.200
 105946864.84048  82556018.07347  20160991.1554   20160979.7994
        48.900          43.200
 134833850.19246                  25658028.9334
        36.300
 111676076.86948  87020294.32145  21251243.4934   21251232.0794
        48.700          35.300
 127489356.92346  99342309.73943  24260398.4244   24260389.4724
        40.900          21.800
 122959429.00547  95812526.61143  23398389.6044   23398380.4184
        42.600          21.700
 109247335.99348  85127821.20546  20789052.4844   20789043.9424
        50.200          38.900
 109449155.04348  85285035.64546  20827475.1804   20827465.5244
        49.600          38.500
 09  5 11  1 39  0.0000000  0 11G25G 8G 6G 7G19G28G23G16G11G 3G13
 110516207.80447  86116505.27846  21030523.5634   21030514.0834
        47.800          37.700
 133343582.07046 103904047.61742  25374438.4624   25374431.9714
        38.400          17.400
 117712004.46747  91723656.10645  22399831.8294   22399823.6984
        46.700          32.400
 115360894.62247  89891572.89345  21952439.4654   21952429.9854
        45.800          35.600
 105957861.43948  82564586.87447  20163083.9024   20163072.3124
        49.200          42.900
 134782925.42645                  25648337.4264
        32.200
 111752770.22648  87080055.37445  21265837.9114   21265825.9114
        48.700          35.000
 127552910.76146  99391832.22443  24272493.0234   24272483.7194
        41.300          22.500
 122863642.28747  95737887.67443  23380162.8914   23380152.2974
        44.300          22.500
 109314273.28548  85179980.13646  20801790.8184   20801781.9834
        49.600          38.500
 109463295.51048  85296054.19746  20830165.9824   20830156.3854
        50.000          38.000
 09  5 11  1 39 30.0000000  0 11G25G 8G 6G 7G19G28G23G16G11G 3G13
 110465572.51148  86077049.22646  21020887.1584   21020878.0894
        48.400          38.800
 133249106.66246 103830430.51242  25356459.0014   25356454.2684
        37.400          16.900
 117795356.72347  91788605.92445  22415693.1444   22415685.0134
        47.600          32.400
 115284894.21847  89832351.82446  21937977.3074   21937966.7144
        46.500          36.000
 105969428.20648  82573599.96347  20165284.7814   20165273.6024
        49.000          42.500
 134732079.14845                  25638659.3134
        34.400
 111829859.42748  87140124.87645  21280507.5834   21280495.5834
        48.700          35.300
 127616392.47446  99441298.45043  24284573.6424   24284563.6934
        40.200          21.100
 122767863.86747  95663255.17343  23361934.8934   23361925.0034
        42.400          19.600
 109381602.45648  85232444.43446  20814603.0084   20814594.1154
        49.100          39.000
 109478042.72848  85307545.54546  20832973.0404   20832962.1544
        50.100          38.300
 09  5 11  1 40  0.0000000  0 11G25G 8G 6G 7G19G28G23G16G11G 3G13
 110415182.40747  86037784.22446  21011298.7954   21011289.9604
        47.900          38.600
 133154493.66646 103756706.21442  25338455.6504   25338449.7464
        37.500          16.300
 117878935.69247  91853732.39845  22431598.2274   22431589.5094
        47.900          31.500
 115209018.42947  89773227.87945  21923537.9364   21923528.3394
        46.100          35.400
 105981562.27947  82583055.09947  20167593.7934   20167582.3794
        47.300          42.900
 134681308.56846                  25628997.8614
        39.600
 111907339.55648  87200499.00745  21295251.4154   21295240.0594
        49.300          35.700
 127679800.59446  99490707.39843  24296639.4714   24296629.6404
        40.800          22.500
 122672094.90547  95588630.09043  23343711.6024   23343703.3544
        42.700          22.600
 109449319.08348  85285210.64546  20827488.8084   20827479.9154
        48.300          38.400
 109493394.41448  85319507.91346  20835893.4184   20835883.5864
        48.400          37.900
 09  5 11  1 40 30.0000000  0 11G25G 8G 6G 7G19G28G23G16G11G 3G13
 110365041.68248  85998713.55146  21001757.1874   21001748.0004
        48.600          39.100
 133059746.13446 103682877.00242  25320423.8384   25320420.0444
        36.700          16.300
 117962740.88847  91919035.14945  22447545.6694   22447537.2444
        47.500          31.900
 115133271.47647  89714204.32545  21909122.9264   21909114.2674
        45.300          35.700
 105994264.78347  82592953.16547  20170010.9464   20169999.7084
        47.500          42.100
 134630615.77946                  25619352.6604
        39.200
 111985209.39248  87261176.79045  21310070.0434   21310058.0434
        49.700          35.700
 127743137.26446  99540060.60443  24308691.5604   24308683.0774
        41.400          22.600
 122576339.79047  95514015.79943  23325489.5424   23325480.8834
        42.500          20.600
 109517422.71348  85338278.42446  20840448.7254   20840439.2454
        50.000          38.300
 109509351.72848  85331942.19646  20838930.2974   20838919.9974
        48.900          37.800
 09  5 11  1 41  0.0000000  0 11G25G 8G 6G 7G19G28G23G16G11G 3G13
 110315150.58148  85959837.38446  20992263.3744   20992253.7194
        48.900          39.000
 132964862.84746 103608942.05842  25302369.3924   25302364.4254
        37.300          16.300
 118046768.08747  91984510.90345  22463535.2724   22463526.6134
        47.500          31.900
 115057653.43747  89655281.21646  21894734.1244   21894724.0584
        46.200          36.200
 106007532.76048  82603291.87047  20172536.2034   20172524.6134
        50.000          43.000
 134579997.37845                  25609717.6714
        34.500
 112063464.42748  87322154.73745  21324961.0444   21324950.0404
        49.800          35.700
 127806400.38346  99589356.55843  24320730.2384   24320721.5204
        40.700          20.900
 122480599.87847  95439413.33943  23307270.3144   23307262.0654
        42.600          21.800
 109585908.80448  85391644.20546  20853480.8984   20853471.8294
        49.100          38.100
 109525911.77348  85344846.13846  20842081.6664   20842071.3074
        49.800          37.700
 09  5 11  1 41 30.0000000  0 11G25G 8G 6G 7G19G28G23G16G11G 3G13
 110265512.31848  85921158.23846  20982817.6924   20982808.3304
        49.900          38.800
 132869845.90145 103534902.97942  25284286.4364   25284282.6424
        34.700          14.800
 118131015.58847  92050158.30745  22479567.0374   22479558.7304
        47.200          31.300
 114982167.69247  89596461.18646  21880369.9874   21880360.0974
        46.900          36.300
 106021365.91848  82614070.96947  20175168.5684   20175156.9194
        49.500          43.000
 134529453.61445                  25600101.0154
        33.200
 112142102.48048  87383431.14246  21339924.9494   21339914.0624
        49.700          36.000
 127869591.33946  99638596.25543  24332755.7764   24332745.6514
        41.800          20.600
 122384878.74447  95364825.48643  23289056.5794   23289045.3414
        43.900          19.900
 109654775.30048  85445306.41746  20866586.0234   20866576.6024
        49.700          37.800
 109543074.37548  85358219.60546  20845347.7334   20845337.7264
        50.000          37.100
 09  5 11  1 42  0.0000000  0 11G25G 8G 6G 7G19G28G23G16G11G 3G13
 110216128.30248  85882677.20246  20973420.0074   20973410.7624
        50.400          39.500
 132774695.45645 103460759.87642  25266181.2544   25266176.4044
        35.600          14.800
 118215480.09547  92115974.80545  22495640.5044   22495631.5524
        47.500          31.400
 114906815.39347  89537745.14846  21866030.0234   21866021.2474
        46.900          36.500
 106035762.27748  82625288.93147  20177908.2634   20177896.2054
        50.200          42.400
 134478983.15545 104788783.30653  25590495.3084   25590491.1044
        34.900          18.600
 112221119.96748  87445003.21546  21354961.5714   21354950.2164
        48.500          36.000
 127932709.33146  99687779.11743  24344767.2044   24344757.6074
        41.900          21.300
 122289178.38847  95290253.80543  23270844.4574   23270834.7434
        42.000          20.100
 109724019.12848  85499262.65446  20879762.8364   20879753.5324
        50.200          37.600
 109560837.79948  85372061.24146  20848727.7374   20848718.0224
        50.700          37.800
 09  5 11  1 42 30.0000000  0 11G25G 8G 6G 7G19G28G23G16G11G 3G13
 110167002.49748  85844397.37446  20964071.8004   20964062.2034
        50.000          40.000
 132679414.68246 103386515.16042  25248048.9284   25248045.3104
        36.400          15.600
 118300161.29647  92181960.15945  22511754.4924   22511745.7744
        45.900          31.200
 114831600.69947  89479136.35346  21851716.9734   21851708.4314
        46.700          36.200
 106050722.52248  82636946.28147  20180754.7044   20180742.7044
        48.400          43.400
 134428587.20846 104749513.91042  25580906.8404   25580900.8764
        40.100          17.400
 112300515.29048  87506869.70745  21370070.0054   21370059.1774
        48.600          35.200
 127995756.20046  99736906.52243  24356763.2614   24356754.9544
        41.700          21.700
 122193503.22447  95215701.81143  23252638.7644   23252628.5814
        43.100          20.600
 109793639.74148  85553512.48146  20893011.3534   20893001.8154
        49.700          37.500
 109579203.13347  85386371.89746  20852222.1694   20852213.0414
        47.600          37.300
 09  5 11  1 43  0.0000000  0 11G25G 8G 6G 7G19G28G23G16G11G 3G13
 110118134.88648  85806318.74246  20954772.3164   20954762.7194
        50.000          39.900
 132584002.75346 103312168.23342  25229894.0514   25229888.6744
        37.300          16.900
 118385054.13647  92248110.42945  22527909.1384   22527900.0684
        46.600          30.700
 114756523.52347  89420634.70746  21837430.4804   21837421.2934
        46.700          36.500
 106066243.30648  82649040.41047  20183708.2504   20183696.4844
        49.400          42.400
 134378262.77546 104710300.10242  25571330.3904   25571324.2514
        37.400          16.300
 112380283.26848  87569026.58445  21385248.6754   21385238.5504
        48.900          35.300
 128058730.01047  99785977.05243  24368747.9134   24368737.7894
        42.100          20.400
 122097853.80047  95141169.82743  23234437.2144   23234426.5044
        42.100          19.900
 109863631.81148  85608051.77046  20906329.3794   20906321.1894
        49.700          37.000
 109598167.02148  85401148.96146  20855831.3034   20855821.3544
        49.700          37.200
 09  5 11  1 43 30.0000000  0 11G25G 8G 6G 7G19G28G23G16G11G 3G13
 110069528.27248  85768443.48646  20945523.0564   20945513.4004
        51.100          40.400
 132488461.22446 103237720.35842  25211713.7514   25211706.9684
        38.100          16.900
 118470157.06447  92314424.39845  22544104.1544   22544094.9684
        46.100          30.500
 114681586.84847  89362242.51946  21823171.0804   21823161.2484
        46.700          36.300
 106082324.34648  82661571.11347  20186768.5024   20186756.3274
        50.700          42.500
 134328009.64846 104671141.95042  25561766.9994   25561761.8564
        37.700          16.300
 112460421.67848  87631472.09745  21400499.5884   21400488.0574
        50.100          35.300
 128121631.48546  99834991.18543  24380717.2104   24380708.0824
        40.200          20.900
 122002233.85346  95066660.86243  23216240.3714   23216231.0674
        41.100          20.400
 109933993.56248  85662879.12246  20919719.0034   20919710.2854
        49.300          36.400
 109617728.95748  85416392.03446  20859553.4794   20859544.2344
        51.000          37.200
 09  5 11  1 44  0.0000000  0 11G25G 8G 6G 7G19G28G23G16G11G 3G13
 110021186.15148  85730774.32346  20936323.6504   20936313.9364
        50.300          40.500
 132392792.47746 103163173.34142  25193507.9154   25193501.8354
        36.100          16.300
 118555468.70047  92380900.99845  22560338.3934   22560328.9134
        46.300          30.700
 114606794.19047  89303962.57646  21808938.3534   21808928.4634
        46.100          36.300
 106098965.19548  82674538.02847  20189934.8674   20189923.3364
        50.000          42.400
 134277828.17045                  25552216.0554
        34.200
 112540928.54548  87694204.73245  21415819.4584   21415808.0444
        48.500          34.900
 128184462.32346  99883950.27743  24392673.6894   24392664.2684
        40.100          20.600
 121906647.04046  94992177.65843  23198051.2144   23198040.0934
        40.200          18.600
 110004723.08748  85717993.04846  20933178.6414   20933169.6894
        49.300          36.700
 109637889.05548  85432101.20146  20863389.9844   20863380.2114
        50.600          36.900
 09  5 11  1 44 30.0000000  0 11G25G 8G 6G 7G19G28G23G16G11G 3G13
 109973110.22148  85693312.57246  20927175.1904   20927166.0034
        51.100          40.600
 132296997.34145 103088527.89642  25175277.6854   25175272.4254
        35.700          16.900
 118640986.34647  92447538.12945  22576611.3614   22576602.6444
        45.200          30.500
 114532147.38247  89245796.27246  21794732.9924   21794724.0404
        45.800          36.500
 106116164.36048  82687939.98847  20193207.7594   20193196.2284
        50.300          42.300
 134227717.37345                  25542681.5344
        32.200
 112621800.66547  87757221.97445  21431208.4294   21431197.0154
        47.700          34.900
 128247222.14046  99932854.05143  24404617.0954   24404607.7914
        40.600          22.300
 121811095.98346  94917722.40543  23179867.7794   23179858.2994
        39.400          19.300
 110075817.68548  85773391.44145  20946707.4464   20946698.3174
        48.900          35.700
 109658645.76548  85448275.26846  20867339.5124   20867330.4424
        49.900          37.100
 09  5 11  1 45  0.0000000  0 11G25G 8G 6G 7G19G28G23G16G11G 3G13
 109925300.51748  85656058.29146  20918077.1154   20918067.5774
        51.400          40.300
 132201074.80745 103013783.08442  25157024.9224   25157019.2524
        34.500          16.900
 118726705.28547  92514332.12345  22592923.0134   22592914.2364
        45.200          30.600
 114457646.38747  89187743.59746  21780556.7294   21780546.6054
        47.400          36.600
 106133918.53048  82701774.41746  20196586.0704   20196574.7744
        49.300          41.900
 134177674.45345 104553988.27252  25533158.0414   25533151.9024
        35.400          17.400
 112703032.34948  87820519.40445  21446666.4914   21446655.1364
        48.100          35.600
 128309908.79746  99981700.78243  24416544.9824   24416536.0894
        40.200          20.900
 121715581.44246  94843295.50443  23161693.3044   23161681.5394
        40.500          19.900
 110147272.42848  85829070.46845  20960304.7624   20960295.7514
        48.500          35.700
 109679995.72348  85464911.59846  20871402.3464   20871392.5154
        50.300          36.800
 09  5 11  1 45 30.0000000  0 11G25G 8G 6G 7G19G28G23G16G11G 3G13
 109877761.68948  85619015.06546  20909031.1814   20909021.2914
        50.200          41.000
 132105028.54946 102938941.85142  25138746.6044   25138742.5164
        36.200          17.400
 118812625.56447  92581282.98945  22609273.3724   22609264.7724
        44.600          30.400
 114383295.90747  89129808.19346  21766407.7314   21766398.0164
        44.700          37.200
 106152228.61048  82716042.02746  20200070.7464   20200058.9804
        49.700          41.700
 134127700.63346 104515047.76643  25523649.0944   25523642.1934
        40.700          19.900
 112784623.12647  87884096.64345  21462192.0584   21462181.3474
        46.400          34.900
 128372524.86046 100030492.55743  24428459.7124   24428451.0534
        40.300          20.400
 121620108.19446  94768900.86643  23143524.5374   23143514.3534
        38.900          19.900
 110219086.90248  85885029.80445  20973970.9514   20973961.8234
        49.000          35.200
 109701940.42348  85482011.36646  20875578.4784   20875568.5304
        49.300          37.000
 09  5 11  1 46  0.0000000  0 11G25G 8G 6G 7G19G28G23G16G11G 3G13
 109830495.01648  85582183.91146  20900036.3324   20900026.9114
        49.700          40.300
 132008859.09146 102864004.66642  25120449.1284   25120441.8754
        36.500          15.600
 118898743.76947  92648388.08345  22625661.1714   22625652.1604
        44.500          30.400
 114309097.20047  89071991.04846  21752287.7834   21752278.7724
        46.000          37.000
 106171092.54248  82730741.20946  20203660.0384   20203648.5074
        48.300          41.800
 134077794.48146 104476160.07543  25514153.3204   25514145.7164
        36.500          18.300
 112866569.09447  87947950.66645  21477786.5014   21477775.0874
        47.500          35.000
 128435069.70746 100079228.81343  24440361.1504   24440353.3114
        38.400          20.600
 121524678.49646  94694540.07343  23125366.2664   23125353.9734
        40.100          19.000
 110291257.45448  85941266.61145  20987704.1314   20987695.5894
        48.100          35.900
 109724477.55748  85499572.76946  20879867.3884   20879857.2634
        48.000          37.100
 09  5 11  1 46 30.0000000  0 11G25G 8G 6G 7G19G28G23G16G11G 3G13
 109783503.38848  85545567.07946  20891094.2344   20891084.2274
        51.600          40.600
 131912567.97445 102788972.63842  25102122.3454   25102118.1984
        35.000          16.900
 118985058.08347  92715646.00345  22642085.5684   22642077.2614
        43.500          30.700
 114235053.42047  89014294.64746  21738198.3694   21738188.7134
        45.900          37.000
 106190509.80048  82745871.55446  20207355.0354   20207343.4454
        49.900          41.600
 134027955.68946 104437324.78742  25504667.5494   25504661.5864
        37.300          16.900
 112948867.69747  88012079.47945  21493446.9234   21493436.4474
        47.000          34.900
 128497544.28546 100127910.31343  24452249.0274   24452241.8924
        38.600          18.600
 121429295.86546  94620215.98043  23107215.3514   23107204.0544
        39.000          18.600
 110363782.56548  85997779.68945  21001505.4024   21001496.5084
        48.700          34.700
 109747606.55248  85517595.37046  20884267.8184   20884258.5734
        49.800          36.500
 09  5 11  1 47  0.0000000  0 11G25G 8G 6G 7G19G28G23G16G11G 3G13
 109736788.11748  85509165.59046  20882204.3464   20882194.8664
        50.700          40.300
 131816155.89846 102713846.42243  25083777.1794   25083771.2164
        37.600          18.300
 119071565.44347  92783054.34144  22658547.6144   22658539.2484
        42.000          29.900
 114161165.92347  88956720.01046  21724137.9684   21724128.1364
        44.800          36.300
 106210478.11848  82761431.30546  20211154.7654   20211143.5274
        49.600          41.700
 133978182.71945                  25495198.0984
        34.000
 113031515.20447  88076480.13245  21509174.4754   21509163.9404
        46.700          35.100
 128559948.13446 100176536.67943  24464126.6694   24464117.4244
        40.200          19.600
 121333962.33746  94545930.16843  23089072.4874   23089061.8354
        38.800          20.100
 110436658.22648  86054565.93845  21015373.4284   21015363.9484
        48.300          34.300
 109771325.49448  85536077.65446  20888781.7124   20888772.4084
        49.200          37.100
 09  5 11  1 47 30.0000000  0 11G25G 8G 6G 7G19G28G23G16G11G 3G13
 109690351.52648  85472981.25746  20873367.6514   20873358.3474
        50.100          40.700
 131719624.38445 102638627.02142  25065407.2884   25065401.5594
        34.600          15.600
 119158263.51847  92850611.28345  22675045.2504   22675037.3534
        42.200          30.900
 114087437.05247  88899268.97946  21710107.0774   21710097.8314
        45.200          36.600
 106230996.23448  82777419.45446  20215059.5494   20215047.8424
        49.100          41.300
 133928475.05845                  25485736.3914
        31.800
 113114508.50847  88141150.25745  21524967.2574   21524956.6064
        47.000          35.500
 128622281.48446 100225108.14243  24475988.2284   24475978.1624
        40.300          18.600
 121238680.63846  94471684.73043  23070941.5694   23070930.8584
        38.900          20.400
 110509882.22348  86111623.59745  21029307.2914   21029298.2804
        48.100          34.700
 109795633.27748  85555018.79346  20893407.3664   20893397.7704
        49.000          37.400
 09  5 11  1 48  0.0000000  0 11G25G 8G 6G 7G19G28G23G16G11G 3G13
 109644195.94948  85437015.88846  20864584.9504   20864574.8264
        51.400          40.400
 131622974.60946 102563315.60042  25047015.7534   25047010.2004
        36.400          16.900
 119245149.93047  92918314.98945  22691579.9694   22691571.4274
        43.600          30.500
 114013869.24447  88841943.46246  21696107.7334   21696098.2534
        46.800          36.800
 106252062.57948  82793834.81346  20219068.0454   20219056.3964
        49.900          41.000
 133878832.09346                  25476290.4514
        38.200
 113197844.69347  88206087.55246  21540825.9494   21540814.9464
        47.800          36.700
 128684544.38946 100273624.70543  24487836.3694   24487826.4794
        41.400          21.100
 121143454.01046  94397482.22843  23052820.0004   23052810.1104
        38.100          19.300
 110583451.77248  86168950.51645  21043307.0364   21043298.2594
        48.200          34.800
 109820528.42948  85574417.62346  20898145.0434   20898135.3884
        49.100          37.000
 09  5 11  1 48 30.0000000  0 11G25G 8G 6G 7G19G28G23G16G11G 3G13
 109598324.25548  85401271.72246  20855856.0074   20855846.1764
        52.200          40.400
 131526208.52546 102487913.50942  25028602.6624   25028595.0004
        37.600          17.800
 119332222.97247  92986164.11344  22708149.6334   22708140.9744
        43.600          29.500
 113940465.47247  88784745.74946  21682139.2804   21682130.0934
        46.600          36.800
 106273676.68248  82810676.98446  20223181.2874   20223169.2874
        49.200          41.200
 133829253.49246 104282486.22953  25466856.4454   25466848.1374
        41.800          20.600
 113281520.95648  88271289.85246  21556749.4754   21556738.4134
        48.400          36.200
 128746738.05246 100322087.27543  24499671.1114   24499661.2214
        40.500          19.300
 121048285.85646  94323325.23843  23034709.7154   23034700.8804
        37.500          20.900
 110657364.95148  86226545.20945  21057371.9054   21057362.8364
        48.800          34.700
 109846010.57548  85594273.84046  20902993.9224   20902984.2084
        48.300          37.300
 09  5 11  1 49  0.0000000  0 11G25G 8G 6G 7G19G28G23G16G11G 3G13
 109552736.77948  85365749.03046  20847180.9094   20847171.3124
        51.000          40.700
 131429325.71046 102412420.49843  25010165.3764   25010159.1794
        37.200          18.300
 119419478.49347  93054155.42745  22724753.0574   22724745.2184
        44.700          31.100
 113867226.40647  88727676.37446  21668202.7654   21668192.9924
        45.800          37.300
 106295835.19948  82827943.37246  20227398.0714   20227386.1304
        49.400          41.100
 133779737.12547 104243901.99843  25457433.8894   25457426.4604
        42.200          21.700
 113365532.55947  88336753.43446  21572736.6304   21572725.2754
        47.200          36.900
 128808860.96846 100370494.76143  24511492.9594   24511483.1284
        39.700          18.600
 120953177.06746  94249214.55043  23016611.7534   23016601.8054
        37.200          19.900
 110731617.35647  86284404.24045  21071501.6354   21071493.0344
        47.700          34.900
 109872075.99748  85614584.56246  20907954.4264   20907944.2434
        48.800          37.400
 09  5 11  1 49 30.0000000  0 11G25G 8G 6G 7G19G28G23G16G11G 3G13
 109507436.62848  85330450.22546  20838560.0804   20838550.8934
        51.400          40.700
 131332328.32546 102336838.21842  24991707.7994   24991700.9574
        37.800          17.800
 119506914.81947  93122287.63145  22741391.9954   22741383.6874
        44.000          31.100
 113794155.23547  88670737.82446  21654297.5204   21654288.2754
        46.200          36.700
 106318537.52248  82845633.50446  20231717.9694   20231706.4384
        50.000          41.400
 133730282.84745 104205366.29243  25448021.6914   25448015.8454
        34.800          18.300
 113449877.48648  88402476.76445  21588787.1614   21588775.1024
        48.000          35.700
 128870914.07146 100418847.83343  24523301.4964   24523291.9574
        40.600          19.300
 120858131.67345  94175153.22643  22998523.4434   22998515.2534
        35.100          19.600
 110806206.94447  86342526.00645  21085695.5574   21085686.8974
        47.900          35.700
 109898724.49448  85635349.63846  20913025.3494   20913015.2834
        48.800          37.300
 09  5 11  1 50  0.0000000  0 10G25G 8G 6G 7G19G23G16G11G 3G13
 109462427.96848  85295378.56246  20829995.2064   20829985.9604
        51.200          41.000
 131235219.50846 102261169.06742  24973228.3374   24973221.6704
        37.900          17.400
 119594531.71847  93190560.55545  22758064.7844   22758056.8284
        45.000          30.100
 113721256.08747  88613933.32146  21640425.5564   21640415.9594
        45.700          37.200
 106341784.39548  82863747.96446  20236141.5164   20236129.8684
        49.200          41.000
 113534554.29947  88468458.70345  21604899.8274   21604888.4714
        46.700          35.600
 128932899.53646 100467148.21842  24535095.4084   24535087.1594
        39.000          17.400
 120763154.41545  94101144.98743  22980449.5494   22980441.1254
        35.700          20.100
 110881132.82248  86400909.81146  21099954.2224   21099945.3284
        48.800          36.100
 109925956.91848  85656569.71446  20918207.5734   20918197.5074
        49.100          37.300
 09  5 11  1 50 30.0000000  0 11G25G 8G 6G 7G19G28G23G16G11G 3G13
 109417707.21548  85260531.23446  20821485.4994   20821476.1964
        50.900          40.600
 131137995.31346 102185410.01342  24954727.8254   24954720.7494
        37.500          17.400
 119682320.96147  93258967.75945  22774770.1654   22774761.9164
        44.000          31.000
 113648525.68147  88557260.30546  21626584.7124   21626575.4674
        45.000          37.400
 106365568.55748  82882281.08846  20240667.8034   20240656.0374
        49.000          41.300
 133631543.18056                  25429237.1284
        39.000
 113619554.26247  88534692.44645  21621074.6274   21621062.9784
        45.800          35.600
 128994812.12646 100515391.85543  24546878.5014   24546869.1974
        38.700          19.300
 120668242.74746  94027187.90943  22962389.1174   22962380.3414
        38.700          20.400
 110956386.91848  86459549.37745  21114274.1354   21114265.1834
        48.300          35.100
 109953765.88848  85678239.04746  20923499.6874   20923489.1524
        48.400          36.400
 09  5 11  1 51  0.0000000  0 11G25G 8G 6G 7G19G28G23G16G11G 3G13
 109373281.72948  85225913.99346  20813031.1984   20813022.0124
        49.100          40.500
 131040662.06446 102109566.01842  24936205.2574   24936198.7084
        37.700          16.300
 119770285.29247  93327511.38645  22791510.2514   22791501.8844
        43.700          31.400
 113575971.38547  88500724.51746  21612779.2204   21612768.9784
        47.500          37.700
 106389893.20248  82901235.36946  20245296.5264   20245284.9364
        48.800          41.600
 133582269.90646                  25419858.9054
        38.900
 113704879.43647  88601179.59745  21637311.6234   21637300.3854
        47.500          34.900
 129056657.19846 100563582.81442  24558646.5894   24558637.1684
        38.600          17.800
 120573404.35046  93953287.85843  22944342.2834   22944333.4484
        39.200          21.800
 111031971.85248  86518446.73445  21128658.0184   21128648.5384
        48.100          35.600
 109982155.13047  85700360.53846  20928901.3634   20928891.5314
        47.900          37.000
 09  5 11  1 51 30.0000000  0 11G25G 8G 6G 7G19G28G23G16G11G 3G13
 109329151.59748  85191526.88846  20804633.0934   20804624.1414
        50.800          39.800
 130943219.02746 102033636.43243  24917662.4444   24917655.8954
        38.500          19.000
 119858420.29647  93396188.01245  22808280.8494   22808272.3664
        43.200          30.900
 113503593.42847  88444326.12346  21599005.4154   21598995.7594
        47.000          37.800
 106414754.92448  82920608.15446  20250027.5974   20250016.1244
        48.500          40.900
 133533054.96646 104051700.34152  25410494.0284   25410487.8314
        41.100          17.800
 113790523.98048  88667915.59445  21653609.4434   21653597.8534
        48.200          34.000
 129118432.95546 100611719.76743  24570403.5794   24570392.6934
        39.400          18.600
 120478639.71246  93879445.34643  22926310.3604   22926300.2364
        40.900          22.300
 111107882.63248  86577597.98045  21143102.6544   21143093.4674
        49.000          35.300
 110011120.95648  85722931.33046  20934413.2584   20934403.5444
        48.200          36.700
 09  5 11  1 52  0.0000000  0 11G25G 8G 6G 7G19G28G23G16G11G 3G13
 109285320.39448  85157372.71646  20796292.9764   20796283.4384
        50.800          39.800
 130845668.74346 101957623.32543  24899099.6914   24899092.5554
        39.400          19.600
 119946724.97647  93464996.85245  22825085.1374   22825076.8294
        43.700          30.700
 113431395.94348  88388068.38046  21585266.9464   21585257.8774
        48.000          38.400
 106440153.57148  82940399.31846  20254860.5674   20254849.1534
        48.900          41.200
 133483898.71746 104013396.95343  25401138.8804   25401133.1514
        38.400          18.600
 113876487.00848  88734899.77545  21669967.5854   21669955.7024
        48.300          33.900
 129180141.10946 100659804.07542  24582144.5344   24582134.9374
        38.000          16.900
 120383953.68346  93805664.07143  22908291.0274   22908281.8994
        41.100          23.000
 111184117.80548  86637002.01545  21157609.4194   21157600.9944
        50.200          35.900
 110040663.25148  85745951.30846  20940035.0524   20940025.4554
        50.200          37.000
 09  5 11  1 52 30.0000000  0 11G25G 8G 6G 7G19G28G23G16G11G 3G13
 109241789.35148  85123452.43846  20788009.5404   20787999.8844
        51.200          40.100
 130748012.06146 101881527.29543  24880516.5754   24880508.7364
        39.200          19.300
 120035195.92047  93533935.23845  22841921.4384   22841912.3094
        44.400          31.500
 113359379.94247  88331952.04346  21571562.5374   21571553.1744
        47.800          38.500
 106466086.54248  82960606.84046  20259795.2934   20259783.8794
        49.000          41.000
 133434799.27246 103975137.69642  25391794.9034   25391789.9374
        37.200          15.600
 113962764.03147  88802128.62245  21686385.8564   21686373.7394
        47.200          34.000
 129241780.80646 100707834.97642  24593874.6014   24593864.5944
        37.600          17.800
 120289347.79046  93731945.26043  22890289.1364   22890279.2464
        41.400          23.400
 111260673.63148  86696655.92045  21172177.8254   21172168.9904
        49.300          35.500
 110070779.51148  85769418.51746  20945765.6774   20945756.4904
        49.600          37.900
 09  5 11  1 53  0.0000000  0 11G25G 8G 6G 7G19G28G23G16G11G 3G13
 109198561.28048  85089768.23846  20779783.0014   20779773.5804
        51.000          40.000
 130650250.76846 101805349.76143  24861912.9894   24861905.3854
        39.900          19.600
 120123831.49047  93603001.91645  22858787.2874   22858779.1554
        44.200          31.100
 113287548.55748  88275979.57246  21557893.7604   21557883.9884
        49.100          38.200
 106492553.17048  82981230.19446  20264831.6064   20264820.2514
        48.400          41.200
 133385756.63946 103936922.78242  25382463.0534   25382457.9694
        36.600          14.800
 114049352.28547  88869599.98545  21702862.0724   21702851.1274
        46.500          33.400
 129303353.06946 100755813.42642  24605590.2364   24605582.3394
        38.400          17.400
 120194826.17446  93658292.08543  22872302.0114   22872292.1804
        41.400          23.000
 111337548.15248  86756558.14146  21186806.9044   21186798.0104
        49.900          36.100
 110101468.92048  85793332.33846  20951606.2174   20951596.7384
        48.800          37.500
 09  5 11  1 53 30.0000000  0 11G25G 8G 6G 7G19G28G23G16G11G 3G13
 109155638.68848  85056322.08346  20771615.1294   20771605.5904
        49.800          39.900
 130552386.72146 101729092.17243  24843290.3594   24843282.6374
        40.900          19.300
 120212629.59447  93672195.24445  22875684.9884   22875676.6804
        43.500          31.100
 113215904.65847  88220153.19946  21544259.9564   21544250.9454
        47.300          38.200
 106519552.16148  83002268.37246  20269969.7194   20269958.0704
        49.300          41.500
 133336770.77346 103898752.11042  25373141.1034   25373134.8474
        38.600          15.600
 114136249.19847  88937311.86545  21719399.1084   21719387.1664
        47.700          32.900
 129364858.62045 100803739.89042  24617294.8754   24617285.8644
        35.700          15.600
 120100391.40247  93584706.60844  22854332.3034   22854322.0614
        43.100          25.000
 111414739.11748  86816706.93645  21201495.9654   21201486.9544
        50.000          35.900
 110132730.20548  85817691.77546  20957555.3484   20957545.3404
        49.900          37.600
 09  5 11  1 54  0.0000000  0 11G25G 8G 6G 7G19G28G23G16G11G 3G13
 109113022.18148  85023114.44146  20763505.7764   20763495.7104
        51.000          40.000
 130454419.74246 101652754.35543  24824646.8664   24824639.6724
        40.100          18.300
 120301586.35647  93741512.20345  22892612.6194   22892604.3714
        43.500          30.400
 113144448.81348  88164473.36846  21530662.6644   21530653.2434
        49.800          38.000
 106547080.06447  83023718.69746  20275208.2584   20275196.6094
        47.400          40.900
 133287838.94946 103860623.44942  25363829.7074   25363822.9824
        38.800          15.600
 114223450.00847  89005260.54445  21735992.2734   21735980.7414
        46.500          31.900
 129426296.15245 100851613.27542  24628986.0784   24628977.6534
        34.700          17.400
 120006045.24346  93511190.15744  22836378.2834   22836368.3934
        41.000          26.800
 111492241.99448  86877098.79046  21216244.2534   21216235.5354
        49.800          36.000
 110164560.17748  85842494.35246  20963612.4194   20963602.5874
        50.900          36.700
 09  5 11  1 54 30.0000000  0 11G25G 8G 6G 7G19G28G23G16G11G 3G13
 109070714.82748  84990147.68346  20755454.9984   20755445.4594
        51.100          39.700
 130356352.20546 101576338.23342  24805985.1014   24805977.9074
        38.900          17.800
 120390700.55447  93810951.82745  22909571.1814   22909562.4044
        43.200          30.500
 113073184.55548  88108942.79646  21517101.6594   21517091.5344
        49.500          38.300
 106575136.25048  83045580.66946  20280546.7114   20280535.1214
        48.000          41.100
 133238961.15346 103822536.81642  25354528.5424   25354522.6374
        37.300          12.600
 114310952.36947  89073444.21345  21752643.2174   21752631.6864
        45.100          31.600
 129487667.25145 100899434.93143  24640665.3544   24640656.1674
        35.200          18.300
 119911791.42846  93437745.66044  22818441.8514   22818432.5474
        41.900          26.700
 111570055.27448  86937732.51246  21231051.6744   21231042.3114
        50.200          36.200
 110196958.30648  85867739.65746  20969777.3124   20969767.2464
        49.800          36.600
 09  5 11  1 55  0.0000000  0 11G25G 8G 6G 7G19G28G23G16G11G 3G13
 109028719.04748  84957423.72146  20747463.5164   20747454.1544
        50.500          39.700
 130258185.73846 101499845.02043  24787302.0494   24787297.6104
        37.300          18.600
 120479969.62447  93880512.14245  22926558.0484   22926549.8584
        45.200          30.600
 113002114.10948  88053563.27346  21503577.1674   21503567.2774
        50.000          38.300
 106603719.04947  83067852.99446  20285986.0104   20285974.3034
        47.900          40.800
 133190136.98245 103784492.05542  25345234.3214   25345231.9924
        33.600          14.800
 114398753.19947  89141860.45445  21769351.5494   21769339.4904
        45.500          31.500
 129548971.73346 100947204.72942  24652331.3264   24652320.7324
        36.400          16.900
 119817633.21947  93364375.67744  22800524.9254   22800514.3904
        43.900          26.700
 111648176.56248  86998606.22946  21245917.4164   21245908.0534
        50.000          36.400
 110229922.59948  85893426.12146  20976050.2034   20976040.2544
        48.400          36.800
 09  5 11  1 55 30.0000000  0 11G25G 8G 6G 7G19G28G23G16G11G 3G13
 108987036.47448  84924943.81446  20739531.4534   20739522.2664
        51.000          39.500
 130159921.53146 101423275.65143  24768605.3974   24768598.2034
        37.800          20.100
 120569391.06247  93950191.17245  22943574.8584   22943565.8474
        44.900          30.300
 112931239.65148  87998336.44646  21490090.0024   21490080.1704
        49.100          37.900
 106632826.62548  83090534.23146  20291524.8924   20291513.3614
        49.000          40.900
 133141365.00146 103746488.08942  25335955.6114   25335951.5824
        37.900          16.900
 114486849.12547  89210506.63045  21786115.4204   21786103.6554
        44.300          30.900
 129610210.05445 100994922.91942  24663984.0654   24663974.8784
        35.500          16.300
 119723572.72347  93291081.82044  22782626.0694   22782615.3584
        43.200          26.700
 111726602.48748  87059717.33746  21260841.3014   21260832.3484
        49.200          36.500
 110263451.09248  85919552.21546  20982430.2364   20982420.4044
        50.000          36.800
 09  5 11  1 56  0.0000000  0 11G25G 8G 6G 7G19G28G23G16G11G 3G13
 108945668.89248  84892709.35146  20731659.4464   20731649.6734
        50.700          40.100
 130061560.68246 101346630.93243  24749888.0534   24749880.9764
        36.300          19.300
 120658962.03747  94019986.73144  22960619.1054   22960610.7394
        45.800          29.700
 112860563.32448  87943264.03246  21476641.4614   21476631.2194
        50.700          38.700
 106662456.68447  83113622.59547  20297163.9694   20297152.0874
        47.900          42.000
 133092644.28946 103708523.96143  25326685.7644   25326679.0984
        40.100          18.600
 114575236.17247  89279379.65245  21802934.3824   21802922.9684
        44.600          30.800
 129671381.93146 101042589.37642  24675625.9094   24675614.9644
        37.100          16.300
 119629612.59347  93217866.18444  22764745.4354   22764734.6664
        43.800          26.800
 111805329.98848  87121063.44045  21275822.5724   21275813.3274
        50.000          35.900
 110297541.79148  85946116.39446  20988917.6514   20988907.6444
        49.500          37.200
 09  5 11  1 56 30.0000000  0 11G25G 8G 6G 7G19G28G23G16G11G 3G13
 108904619.25448  84860722.62946  20723848.1084   20723837.9254
        51.100          39.800
 129963105.07846 101269912.45043  24731151.3814   24731145.3604
        38.100          19.600
 120748681.03147  94089897.62644  22977692.4114   22977683.8114
        45.000          29.900
 112790088.03948  87888348.25746  21463230.0164   21463220.0674
        50.400          38.300
 106692608.14648  83137117.25246  20302900.8584   20302889.6794
        49.100          41.700
 133043974.71246 103670599.66042  25317423.7964   25317417.0134
        37.900          17.800
 114663912.10247  89348477.79545  21819808.5354   21819798.0004
        44.400          30.800
 129732488.37345 101090204.80542  24687251.7524   24687243.4444
        34.100          16.900
 119535756.66547  93144731.72244  22746885.1924   22746875.1854
        44.300          27.600
 111884357.11448  87182643.01546  21290860.7324   21290851.7804
        50.200          36.400
 110332193.81448  85973117.96346  20995512.0534   20995502.2214
        52.300          36.200
 09  5 11  1 57  0.0000000  0 11G25G 8G 6G 7G19G28G23G16G11G 3G13
 108863888.80448  84828984.62946  20716096.8194   20716087.5154
        51.300          39.700
 129864555.29446 101193120.50343  24712399.7424   24712391.3174
        37.300          19.000
 120838544.76747  94159921.31644  22994793.1464   22994784.0774
        45.100          29.300
 112719815.46648  87833590.43846  21449857.2644   21449847.4924
        50.700          38.400
 106723278.66348  83161016.36546  20308737.3364   20308725.6294
        49.400          41.500
 132995354.47946 103632713.81142  25308171.9404   25308165.1564
        37.500          16.300
 114752872.79247  89417797.80045  21836739.0654   21836726.9474
        45.500          31.400
 129793529.42146 101137769.26742  24698869.0724   24698859.2404
        36.800          16.900
 119442006.95247  93071680.02144  22729045.3884   22729035.1464
        44.900          27.900
 111963679.93148  87244453.00046  21305955.9304   21305946.2744
        50.000          36.000
 110367404.38448  86000554.77046  21002212.1534   21002202.6734
        51.400          37.300
 09  5 11  1 57 30.0000000  0 11G25G 8G 6G 7G19G28G23G16G11G 3G13
 108823479.41448  84797496.80746  20708407.2934   20708397.5794
        51.300          39.200
 129765913.17446 101116256.64243  24693627.2054   24693620.5974
        37.800          19.600
 120928550.76647  94230055.85144  23011920.7244   23011911.3614
        44.600          29.600
 112649747.75648  87778992.27046  21436524.0364   21436514.0874
        51.500          38.600
 106754466.00148  83185318.19247  20314672.0584   20314660.4104
        48.100          42.300
 132946782.57446                  25298928.5524
        36.700
 114842114.84847  89487337.07645  21853720.0764   21853709.3064
        44.500          31.100
 129854504.77845 101185282.57942  24710470.7374   24710463.0754
        35.800          17.400
 119348366.61947  92998713.56444  22711225.5974   22711216.6454
        45.000          28.600
 112043295.66348  87306491.22846  21321105.5104   21321097.0854
        49.600          36.000
 110403171.54948  86028425.28246  21009018.3494   21009008.9284
        50.400          36.400
 09  5 11  1 58  0.0000000  0 11G25G 8G 6G 7G19G28G23G16G11G 3G13
 108783395.10648  84766262.30346  20700779.4784   20700769.7054
        51.000          39.300
 129667181.60946 101039323.08743  24674839.5274   24674832.0404
        38.800          19.900
 121018698.56247  94300300.88444  23029075.0814   23029066.3044
        45.100          29.100
 112579889.19948  87724557.06346  21423230.8244   21423220.5824
        51.500          38.600
 106786170.38348  83210022.91447  20320705.2914   20320693.5844
        48.300          42.500
 132898259.81846                  25289694.1214
        36.500
 114931636.88847  89557094.51845  21870756.2284   21870744.1104
        44.400          31.900
 129915416.63546 101232746.33642  24722062.0514   24722054.0374
        36.200          15.600
 119254839.97347  92925835.69744  22693428.0424   22693418.5034
        44.900          28.600
 112123203.84248  87368757.33646  21336312.2344   21336303.1644
        50.100          36.600
 110439495.18048  86056729.40546  21015930.3814   21015920.6664
        50.600          36.000
 09  5 11  1 58 30.0000000  0 11G25G 8G 6G 7G19G28G23G16G11G 3G13
 108743636.87548  84735281.87846  20693213.6924   20693204.4474
        51.200          40.000
 129568361.15146 100962320.26043  24656033.9594   24656027.0004
        38.400          19.900
 121108984.59147  94370653.62644  23046255.1174   23046246.7514
        42.200          28.500
 112510241.19248  87670285.91746  21409976.8324   21409966.8254
        51.500          38.600
 106818388.72948  83235128.13446  20326836.5164   20326824.7504
        49.300          41.700
 132849784.56946 103519269.87353  25280471.1614   25280462.9124
        38.900          20.400
 115021434.66947  89627066.80845  21887843.2804   21887832.1594
        44.700          30.700
 129976264.24045 101280160.07642  24733641.4184   24733633.5794
        35.600          16.300
 119161428.91147  92853047.86344  22675653.1404   22675643.2504
        45.800          28.900
 112203400.33548  87431248.11446  21351573.1634   21351564.0354
        50.300          36.800
 110476372.41548  86085464.90846  21022948.3844   21022938.2014
        52.100          36.300
 09  5 11  1 59  0.0000000  0 11G25G 8G 6G 7G19G28G23G16G11G 3G13
 108704206.17548  84704556.67246  20685710.3844   20685700.7874
        51.900          40.600
 129469452.79146 100885248.93942  24637212.5924   24637204.8714
        38.900          17.400
 121199405.97547  94441111.84444  23063462.4524   23063453.8524
        43.800          28.800
 112440805.22748  87616180.00546  21396763.5574   21396753.5504
        52.200          38.800
 106851118.44748  83260631.82446  20333064.5454   20333053.0144
        49.500          41.800
 132801355.31446 103481532.88042  25271254.7924   25271248.3014
        37.700          17.800
 115111503.91147  89697250.64345  21904983.3304   21904971.7404
        45.600          31.400
 130037047.20445 101327523.57742  24745208.2274   24745199.5684
        35.800          17.800
 119068135.44747  92780351.70644  22657899.5494   22657890.1864
        44.500          28.900
 112283882.06248  87493961.13946  21366888.5534   21366879.6014
        50.000          36.600
 110513800.61248  86114629.73746  21030070.9154   21030060.6144
        52.500          36.000
 09  5 11  1 59 30.0000000  0 11G25G 8G 6G 7G19G28G23G16G11G 3G13
 108665105.73148  84674088.81146  20678269.6384   20678259.9824
        50.800          40.500
 129370458.86946 100808111.01643  24618372.2184   24618367.3104
        39.900          18.600
 121289960.91947  94511674.12944  23080694.5774   23080685.8014
        43.600          28.500
 112371584.59648  87562241.86446  21383591.3304   21383581.4404
        51.000          38.600
 106884358.65448  83286533.28447  20339390.2234   20339378.7514
        49.300          42.200
 132752971.61346 103443831.34042  25262049.1624   25262040.7964
        39.000          16.900
 115201842.17447  89767644.09545  21922174.2534   21922162.6634
        46.400          32.600
 130097766.80245 101374837.55242  24756762.8884   24756754.4054
        35.900          17.400
 118974963.48947  92707750.20144  22640169.7524   22640159.6864
        45.100          27.600
 112364646.67148  87556894.59046  21382257.5604   21382248.8424
        49.900          36.800
 110551778.57248  86144222.94946  21037297.6604   21037287.2424
        51.200          36.000
 09  5 11  2  0  0.0000000  0 11G25G 8G 6G 7G19G28G23G16G11G 3G13
 108626337.08348  84643879.48746  20670892.2574   20670883.3634
        51.300          40.100
 129271380.12746 100730906.94543  24599520.4154   24599512.7534
        40.500          18.600
 121380646.55147  94582338.22944  23097951.5284   23097943.1624
        44.300          28.300
 112302580.98848  87508472.84546  21370460.2744   21370450.1494
        50.900          38.400
 106918106.49548  83312830.31347  20345812.1424   20345800.5524
        50.700          42.300
 132704631.61046 103406163.81842  25252849.2734   25252841.8444
        38.300          16.900
 115292445.87147  89838244.39745  21939415.3984   21939403.9844
        46.100          32.300
 130158422.79446 101422101.98542  24768305.0574   24768295.5774
        37.000          16.300
 118881915.44847  92635245.25744  22622462.6224   22622453.2014
        44.500          26.900
 112445690.90048  87620045.93046  21397679.4794   21397670.2924
        49.500          36.000
 110590303.79948  86174242.61745  21044628.6144   21044617.9624
        52.200          35.700
 09  5 11  2  0 30.0000000  0 11G25G 8G 6G 7G19G28G23G16G11G 3G13
 108587904.12748  84613931.74746  20663578.8194   20663569.2804
        51.200          40.000
 129172219.98546 100653639.45043  24580650.6604   24580643.2904
        38.800          18.300
 121471462.52547  94653103.92844  23115233.2194   23115224.7954
        44.500          29.300
 112233798.60348  87454876.21546  21357371.4104   21357361.6374
        50.600          38.300
 106952361.99248  83339522.91847  20352330.3284   20352319.0904
        50.500          42.100
 132656337.36046 103368532.01242  25243658.6294   25243651.4354
        37.200          16.300
 115383313.30247  89909050.17745  21956706.5514   21956695.9574
        46.300          33.600
 130219017.17246 101469318.42342  24779835.5654   24779826.4954
        37.000          15.600
 118788995.84447  92562840.38444  22604781.7094   22604771.2914
        46.200          27.900
 112527013.64948  87683414.30345  21413155.0414   21413145.3854
        49.100          35.900
 110629376.08848  86204688.56446  21052063.6164   21052053.8444
        51.100          36.400
 09  5 11  2  1  0.0000000  0 11G25G 8G 6G 7G19G28G23G16G11G 3G13
 108549806.85148  84584245.55846  20656328.9974   20656319.3424
        50.300          40.000
 129072978.01946 100576308.21243  24561764.5794   24561757.5024
        37.300          18.300
 121562404.22347  94723967.57244  23132538.6534   23132530.3464
        44.400          29.100
 112165237.71348  87401452.16346  21344324.5544   21344314.6054
        50.900          38.300
 106987121.06048  83366607.92647  20358945.1694   20358933.4624
        50.200          42.600
 132608085.27945 103330933.08142  25234475.1974   25234469.9964
        34.800          17.800
 115474439.12048  89980057.30545  21974048.3214   21974036.2044
        48.000          33.600
 130279548.15546 101516485.41642  24791355.9754   24791345.5584
        38.100          16.900
 118696205.65047  92490536.36344  22587123.6384   22587113.8654
        44.900          27.200
 112608610.22248  87746996.04745  21428682.3884   21428672.8494
        49.600          35.500
 110668991.44048  86235557.66846  21059602.3504   21059592.4604
        52.300          36.200
 09  5 11  2  1 30.0000000  0 11G25G 8G 6G 7G19G28G23G16G11G 3G13
 108512047.58948  84554822.76546  20649143.7384   20649134.1414
        51.400          40.000
 128973655.79346 100498914.41643  24542865.0434   24542857.4384
        37.800          19.000
 121653469.68047  94794927.65544  23149868.1114   23149859.6874
        44.300          29.800
 112096901.17048  87348202.93746  21331320.9184   21331310.8524
        51.300          38.600
 107022381.95948  83394083.94847  20365654.6914   20365643.3364
        50.000          42.600
 132559875.15646 103293366.82742  25225300.9274   25225296.0194
        36.900          16.900
 115565820.25647  90051263.38045  21991437.3944   21991425.5114
        47.300          33.900
 130340016.48846 101563603.63642  24802860.4594   24802852.9724
        36.700          16.900
 118603548.09147  92418335.70344  22569491.8834   22569481.5834
        44.800          27.300
 112690478.54448  87810789.55046  21444260.6124   21444252.0704
        49.200          36.100
 110709148.14648  86266848.59446  21067243.8884   21067233.9394
        51.900          36.900
 09  5 11  2  2  0.0000000  0 11G25G 8G 6G 7G19G28G23G16G11G 3G13
 108474628.92448  84525665.37246  20642023.1704   20642013.6904
        50.500          39.700
 128874255.39046 100421459.69243  24523948.9504   24523942.2844
        37.800          19.300
 121744657.17647  94865982.84944  23167220.3784   23167211.3094
        45.400          28.900
 112028791.89548  87295130.80646  21318359.8144   21318350.2174
        50.700          38.300
 107058143.62748  83421950.19347  20372460.0564   20372448.4674
        50.000          42.000
 132511706.31446 103255832.73443  25216136.4574   25216129.8494
        40.000          18.300
 115657454.24048  90122666.48845  22008874.9494   22008863.0074
        48.200          34.000
 130400423.18346 101610673.79142  24814355.9334   24814347.6844
        37.700          15.600
 118511026.36747  92346240.86144  22551885.2324   22551874.8734
        44.500          27.600
 112772616.29448  87874793.00145  21459891.3704   21459882.1834
        48.800          35.700
 110749844.49748  86298560.04146  21074988.3504   21074978.2844
        51.700          36.700
 09  5 11  2  2 30.0000000  0 11G25G 8G 6G 7G19G28G23G16G11G 3G13
 108437552.89648  84496774.97646  20634968.0384   20634958.1484
        50.400          40.100
 128774778.93246 100343945.74643  24505020.7464   24505012.3214
        38.700          19.300
 121835964.42247  94937131.32544  23184595.8414   23184587.0064
        44.400          28.700
 111960912.23148  87242237.58346  21305443.0504   21305432.6914
        50.800          38.300
 107094403.83848  83450204.91347  20379360.1314   20379348.3654
        49.400          42.700
 132463577.70646 103218330.04143  25206977.6684   25206970.7084
        39.500          19.300
 115749337.69248  90194263.98745  22026359.5704   22026348.2144
        48.100          34.100
 130460768.62046 101657696.35842  24825839.4934   24825830.5414
        37.000          15.600
 118418643.65947  92274254.36344  22534304.5924   22534295.8164
        43.900          28.200
 112855020.07248  87939003.73345  21475572.0114   21475563.2934
        48.600          35.100
 110791078.52048  86330690.45146  21082834.8304   21082824.7064
        52.200          36.600
 09  5 11  2  3  0.0000000  0 11G25G 8G 6G 7G19G28G23G16G11G 3G13
 108400821.51848  84468153.13146  20627978.3374   20627968.5654
        50.000          39.800
 128675227.45546 100266373.28443  24486075.2834   24486067.9724
        37.600          18.300
 121927388.94547  95008371.21844  23201993.1834   23201983.9384
        45.800          28.800
 111893264.68748  87189525.24546  21292569.6564   21292559.7074
        48.900          38.200
 107131160.60248  83478846.55847  20386354.8324   20386343.3014
        50.900          42.300
 132415488.49346 103180858.00442  25197826.9024   25197819.5914
        38.300          16.900
 115841467.25147  90266053.25145  22043890.6304   22043879.8024
        47.400          34.700
 130521053.13546 101704671.32942  24837312.2804   24837302.5074
        38.300          16.300
 118326403.22947  92202378.73644  22516752.5614   22516742.6714
        44.700          26.000
 112937687.80548  88003420.14545  21491303.4224   21491294.1774
        48.600          35.500
 110832848.13048  86363238.20046  21090783.1474   21090773.4914
        52.700          37.100
 09  5 11  2  3 30.0000000  0 11G25G 8G 6G 7G19G28G23G16G11G 3G13
 108364437.70148  84439802.11046  20621054.8594   20621044.5004
        50.900          39.600
 128575603.82846 100188744.63743  24467116.4034   24467110.1464
        37.100          19.300
 122018929.49147  95079701.51044  23219412.3724   23219404.1824
        45.200          29.700
 111825852.42048  87136996.23946  21279741.5344   21279731.5864
        49.700          38.200
 107168412.70048  83507874.18447  20393443.3934   20393431.9794
        50.500          42.300
 132367438.58346 103143416.61742  25188683.0694   25188675.9924
        38.200          15.600
 115933840.46148  90338032.38745  22061470.0674   22061457.7744
        48.300          34.700
 130581277.83746 101751599.70342  24848772.5044   24848763.3174
        37.500          15.600
 118234308.34047  92130616.51844  22499227.3334   22499217.2084
        44.400          25.600
 113020617.69648  88068040.84245  21507084.6024   21507075.3574
        48.200          35.900
 110875152.17348  86396202.39146  21098833.2494   21098823.3014
        53.000          36.800
 09  5 11  2  4  0.0000000  0 11G25G 8G 6G 7G19G28G23G16G11G 3G13
 108328402.55448  84411722.77746  20614197.7694   20614187.4694
        50.900          39.800
 128475908.59346 100111060.12043  24448145.6074   24448138.4724
        37.700          19.300
 122110582.68047  95151119.57944  23236854.1294   23236845.0604
        45.200          28.300
 111758676.89848  87084651.69946  21266958.9344   21266948.8104
        49.800          38.200
 107206157.21948  83537285.51047  20400626.0074   20400614.4764
        49.300          42.100
 132319426.70346 103106004.89642  25179545.5274   25179540.0334
        37.100          16.300
 116026452.92348  90410197.93345  22079093.1514   22079081.3274
        48.800          34.400
 130641442.26346 101798481.09642  24860221.4674   24860212.3394
        37.100          17.800
 118142361.07547  92058969.30544  22481730.3754   22481719.7234
        44.900          25.300
 113103805.51947  88132862.52845  21522914.3994   21522905.7994
        47.500          35.700
 110917987.42648  86429580.52146  21106984.2334   21106974.6364
        52.300          37.300
 09  5 11  2  4 30.0000000  0 11G25G 8G 6G 7G19G28G23G16G11G 3G13
 108292717.63248  84383916.36246  20607406.6884   20607396.9734
        50.200          40.200
 128376142.93046 100033320.75443  24429161.0584   24429154.2744
        38.600          19.900
 122202345.79247  95222623.28544  23254316.0044   23254306.8764
        45.300          27.800
 111691740.33948  87032493.37446  21254221.0434   21254210.5084
        48.500          37.600
 107244391.45248  83567078.42247  20407902.0734   20407890.4254
        50.900          42.100
 132271451.16846 103068621.41643  25170417.0444   25170410.3194
        37.300          18.300
 116119301.04048  90482547.11645  22096761.4554   22096749.6894
        48.600          34.900
 130701546.30046 101845315.50442  24871658.6964   24871648.8644
        38.200          15.600
 118050564.07047  91987439.19744  22464261.7024   22464251.3434
        44.500          24.700
 113187248.55947  88197883.07745  21538793.3994   21538784.2134
        46.700          34.700
 110961350.83048  86463370.18946  21115236.4674   21115226.5774
        52.000          37.700
 09  5 11  2  5  0.0000000  0 11G25G 8G 6G 7G19G28G23G16G11G 3G13
 108257386.51848  84356385.63546  20600682.9444   20600673.4064
        50.400          40.000
 128276310.25146  99955529.17543  24410164.4934   24410156.3024
        40.000          20.100
 122294218.17347  95294212.15244  23271798.7194   23271789.4744
        46.400          29.100
 111625046.48148  86980524.14646  21241529.4524   21241519.3274
        49.200          38.300
 107283115.03148  83597252.65546  20415270.8064   20415259.3344
        49.300          41.900
 132223512.60846 103031266.71542  25161293.9604   25161287.2934
        36.500          16.900
 116212383.13648  90555078.62045  22114473.7384   22114462.7934
        48.000          34.500
 130761592.14446 101892104.49142  24883084.6004   24883074.7104
        37.100          15.600
 117958921.79047  91916029.66144  22446822.7664   22446811.8804
        44.400          24.900
 113270945.61847  88263101.57245  21554719.4074   21554711.1584
        46.700          34.400
 111005242.21048  86497571.27346  21123588.4394   21123579.0184
        52.200          37.700
 09  5 11  2  5 30.0000000  0 11G25G 8G 6G 7G19G28G23G16G11G 3G13
 108222409.71748  84329130.99246  20594027.5164   20594017.6844
        49.700          39.800
 128176410.54847  99877685.35443  24391154.8694   24391146.1514
        42.100          21.700
 122386196.03847  95365883.20344  23289301.3744   23289292.4804
        44.000          27.900
 111558596.26148  86928744.78046  21228883.9314   21228874.5684
        48.200          37.800
 107322324.40848  83627805.42246  20422731.8344   20422720.1274
        50.200          41.800
 132175608.79546 102993939.18242  25152179.4194   25152171.5224
        36.900          16.900
 116305694.32348  90627788.64445  22132231.1134   22132218.9964
        48.800          33.900
 130821578.44546 101938847.10542  24894498.8724   24894491.4434
        37.300          14.800
 117867435.66647  91844741.80943  22429413.7254   22429402.7804
        45.100          23.600
 113354892.29447  88328514.56445  21570694.4594   21570685.6244
        46.600          34.000
 111049657.72348  86532180.76446  21132040.7954   21132031.1394
        52.000          38.000
 09  5 11  2  6  0.0000000  0 11G25G 8G 6G 7G19G28G23G16G11G 3G13
 108187790.30148  84302154.83346  20587439.4264   20587429.7714
        49.000          40.000
 128076446.61646  99799791.48143  24372131.4214   24372123.1724
        40.800          20.400
 122478278.14847  95437635.49244  23306824.2174   23306814.7374
        43.700          27.800
 111492393.27448  86877158.05846  21216285.8724   21216276.2164
        48.000          37.600
 107362018.67448  83658736.02746  20430285.2924   20430274.2894
        49.300          41.800
 132127739.71046 102956638.75143  25143068.5794   25143061.9714
        36.000          18.600
 116399232.46848  90700675.50845  22150030.2784   22150018.5714
        48.800          33.600
 130881506.71346 101985544.54142  24905903.3324   24905894.4974
        37.100          14.800
 117776109.79547  91773578.80043  22412035.1124   22412024.0504
        44.900          22.600
 113439086.78947  88394120.67045  21586716.0904   21586707.0214
        47.300          33.600
 111094596.47348  86567197.96646  21140592.4264   21140582.5364
        51.800          37.800
 09  5 11  2  6 30.0000000  0 11G25G 8G 6G 7G19G28G23G16G11G 3G13
 108153530.01748  84275458.51546  20580920.0174   20580910.4794
        48.700          40.000
 127976419.91246  99721848.68043  24353095.4374   24353088.0674
        38.600          20.600
 122570462.09947  95509467.13044  23324365.5284   23324356.9284
        44.600          28.000
 111426439.76548  86825765.73946  21203736.0774   21203725.7184
        48.800          38.300
 107402195.25548  83690042.45546  20437931.0934   20437919.5034
        49.100          41.900
 132079904.45646 102919364.61742  25133966.0674   25133959.6944
        36.300          17.400
 116492994.12448  90773736.53845  22167872.3094   22167861.0124
        48.200          33.200
 130941377.13546 102032196.85442  24917296.5314   24917286.5244
        37.200          15.600
 117684946.80147  91702542.71844  22394686.4744   22394675.9984
        44.200          26.400
 113523526.55247  88459917.89745  21602784.9174   21602775.7894
        46.700          33.500
 111140056.02748  86602621.00246  21149242.9934   21149233.0444
        53.200          37.600
 09  5 11  2  7  0.0000000  0 11G25G 8G 6G 7G19G28G23G16G11G 3G13
 108119630.86948  84249043.60946  20574468.9924   20574459.5124
        49.500          39.400
 127876331.97046  99643858.20043  24334049.9474   24334042.5774
        40.000          21.800
 122662745.65547  95581376.39144  23341926.7364   23341918.3704
        45.200          28.100
 111360738.11148  86774569.65346  21191232.7884   21191223.5434
        48.800          38.200
 107442852.00048  83721723.05346  20445667.6334   20445655.9854
        50.300          41.300
 132032102.10246 102882116.19242  25124869.3004   25124863.1614
        36.600          15.600
 116586975.64648  90846968.90145  22185755.9864   22185744.9244
        48.100          34.300
 131001190.33346 102078804.61342  24928677.4414   24928668.7824
        36.700          15.600
 117593949.53247  91631635.82244  22377371.4384   22377360.0244
        45.200          24.000
 113608208.54447  88525903.86545  21618899.0714   21618889.9434
        47.000          33.600
 111186033.81048  86638447.84946  21157992.0844   21157982.0774
        52.200          37.200
 09  5 11  2  7 30.0000000  0 11G25G 8G 6G 7G19G28G23G16G11G 3G13
 108086095.80448  84222912.40246  20568087.3894   20568078.0264
        48.100          39.300
 127776185.52846  99565822.11443  24314992.5654   24314986.0164
        40.700          22.300
 122755127.33047  95653362.11244  23359506.5234   23359498.4504
        44.500          27.900
 111295291.79848  86723572.55446  21178779.3934   21178769.0344
        48.800          38.400
 107483987.72048  83753776.86546  20453495.2874   20453483.9914
        49.600          41.500
 131984332.68845                  25115778.2404
        35.100
 116681174.50648  90920370.60045  22203681.8534   22203670.0884
        48.100          32.700
 131060947.23245 102125368.39542  24940047.6474   24940040.1604
        35.200          16.300
 117503122.02347  91560861.15544  22360086.9944   22360076.3424
        43.800          26.200
 113693131.11747  88592077.30545  21635059.8464   21635050.2494
        47.400          33.400
 111232528.58048  86674677.54746  21166839.7024   21166829.8124
        52.700          37.400
 09  5 11  2  8  0.0000000  0 11G25G 8G 6G 7G19G28G23G16G11G 3G13
 108052924.89048  84197064.95746  20561775.4074   20561765.5764
        48.300          39.300
 127675980.52146  99487740.45443  24295925.0744   24295916.5324
        40.900          20.600
 122847603.22047  95725421.22744  23377104.4564   23377095.5044
        44.700          28.700
 111230101.19148  86672774.67846  21166373.8234   21166363.9924
        49.000          38.400
 107525598.26248  83786200.67046  20461413.5184   20461402.1624
        50.300          40.800
 131936593.59145                  25106694.0084
        35.900
 116775586.23047  90993938.18545  22221647.9154   22221636.5604
        47.500          31.700
 131120646.87446 102171887.69642  24951410.6774   24951401.0804
        38.000          16.300
 117412465.27747  91490219.54444  22342834.8054   22342824.0944
        45.100          24.600
 113778289.78047  88658434.69845  21651264.6074   21651255.0694
        46.700          32.800
 111279536.25548  86711306.90946  21175785.5434   21175775.0084
        53.100          37.300
 09  5 11  2  8 30.0000000  0 11G25G 8G 6G 7G19G28G23G16G11G 3G13
 108020120.25148  84171502.91446  20555532.7704   20555523.2904
        48.300          39.800
 127575718.85646  99409614.55943  24276844.9894   24276836.9744
        40.700          20.400
 122940171.09347  95797552.03344  23394719.1804   23394710.6964
        44.400          28.000
 111165169.06948  86622178.23546  21154017.6584   21154007.4754
        48.800          38.600
 107567681.86848  83818993.09946  20469421.7904   20469410.4354
        50.300          41.200
 131888884.07046 102770504.92953  25097616.0664   25097607.0554
        37.200          19.300
 116870207.55447  91067669.08245  22239653.4194   22239642.4154
        46.800          31.800
 131180289.72546 102218362.63742  24962760.4634   24962750.8664
        37.100          17.400
 117321982.48247  91419713.53344  22325617.5734   22325606.2774
        44.500          26.100
 113863681.86047  88724973.99345  21667513.8384   21667504.5924
        46.300          33.200
 111327054.40848  86748334.05646  21184827.8734   21184818.1004
        53.100          36.400
 09  5 11  2  9  0.0000000  0 11G25G 8G 6G 7G19G28G23G16G11G 3G13
 107987685.46548  84146229.06546  20549361.1114   20549350.8694
        49.100          40.000
 127475404.20746  99331447.41643  24257757.1604   24257747.7394
        41.700          21.700
 123032830.54547  95869754.18644  23412352.1524   23412343.1994
        44.700          29.100
 111100499.51548  86571786.40146  21141711.2684   21141701.5544
        50.000          38.600
 107610238.19948  83852153.88746  20477519.5034   20477508.4414
        49.600          41.700
 131841204.46846 102733352.17743  25088542.5604   25088535.3664
        38.000          18.300
 116965036.69647  91141561.91645  22257698.7954   22257687.7924
        46.400          31.800
 131239877.85445 102264795.03842  24974097.9474   24974089.6984
        35.000          17.800
 117231678.32147  91349346.67744  22308433.4154   22308422.3534
        44.600          25.800
 113949306.58547  88791694.55645  21683808.1864   21683798.8234
        46.100          32.400
 111375082.46948  86785758.51546  21193966.9764   21193957.3204
        51.800          36.400
 09  5 11  2  9 30.0000000  0 11G25G 8G 6G 7G19G28G23G16G11G 3G13
 107955621.20048  84121243.93546  20543259.2584   20543249.4274
        48.700          39.800
 127375036.49546  99253238.95343  24238656.6704   24238649.0664
        41.400          21.800
 123125578.05047  95942024.95944  23430001.3584   23429992.3474
        45.800          28.500
 111036093.42448  86521599.85546  21129455.0634   21129445.0554
        48.900          38.600
 107653263.23448  83885679.89746  20485707.3374   20485695.9234
        50.300          41.600
 131793552.63346 102696221.03043  25079474.8984   25079467.5874
        38.200          18.300
 117060068.91747  91215612.99944  22275782.3254   22275771.6734
        44.900          29.800
 131299410.26146 102311183.94143  24985426.9984   24985418.7494
        36.200          18.600
 117141554.27947  91279120.16844  22291283.1744   22291271.5844
        45.500          25.300
 114035159.73847  88858593.12745  21700145.3294   21700136.3774
        46.600          32.800
 111423616.80148  86823577.47046  21203202.3444   21203193.0404
        52.400          36.200
 09  5 11  2 10  0.0000000  0 11G25G 8G 6G 7G19G28G23G16G11G 3G13
 107923930.08748  84096549.57446  20537228.6664   20537218.8354
        48.000          39.800
 127274618.72647  99174991.50643  24219547.9534   24219539.7634
        43.200          22.300
 123218411.86547  96014362.99244  23447667.2804   23447658.5044
        45.100          29.600
 110971954.12848  86471621.19546  21117250.4294   21117239.7184
        48.100          38.200
 107696755.42548  83919569.92746  20493983.7624   20493972.2894
        50.800          40.500
 131745928.51146 102659111.43243  25070413.4804   25070405.1144
        38.600          18.300
 117155301.59747  91289820.28844  22293904.7744   22293893.3604
        45.400          29.700
 131358888.01446 102357530.28243  24996746.2744   24996736.6774
        37.100          18.600
 117051614.17347  91209037.00644  22274168.1114   22274157.5174
        45.900          26.800
 114121239.38547  88925668.17045  21716525.5294   21716516.8114
        45.600          32.400
 111472655.44548  86861789.40845  21212534.5834   21212524.4594
        52.900          35.500
 09  5 11  2 10 30.0000000  0 11G25G 8G 6G 7G19G28G23G16G11G 3G13
 107892614.53547  84072147.86546  20531269.7064   20531258.9964
        47.300          39.800
 127174152.52847  99096706.25643  24200429.7394   24200421.0804
        43.900          22.200
 123311330.37047  96086767.02244  23465348.6944   23465340.3864
        44.300          28.800
 110908084.36747  86421852.59146  21105096.1844   21105085.7664
        47.100          38.800
 107740713.45148  83953822.94146  20502348.5544   20502337.1404
        50.800          40.600
 131698331.84946 102622023.22942  25061352.7114   25061347.9204
        36.000          16.300
 117250731.78947  91364181.48144  22312064.3114   22312053.0734
        44.500          28.800
 131418312.35245 102403834.96642  25008053.1164   25008044.5154
        33.700          16.900
 116961861.19947  91139099.63844  22257089.1774   22257078.2904
        46.900          27.500
 114207543.19247  88992917.88545  21732948.2914   21732939.6324
        45.800          32.100
 111522196.81548  86900393.06745  21221962.0424   21221951.9764
        52.300          35.700
 09  5 11  2 11  0.0000000  0 11G25G 8G 6G 7G19G28G23G16G11G 3G13
 107861676.29248  84048040.15446  20525382.3984   20525372.5674
        48.500          39.900
 127073640.08747  99018384.95643  24181302.2054   24181294.0154
        43.100          22.300
 123404331.30147  96159235.26444  23483045.8534   23483038.0734
        44.500          28.000
 110844486.64848  86372295.94046  21092993.7494   21092983.9764
        48.800          39.400
 107785134.63748  83988436.86746  20510801.4934   20510790.0204
        49.300          40.600
 131650761.99046 102584955.96842  25052302.5234   25052295.9744
        37.000          14.800
 117346356.33147  91438694.10344  22330260.8204   22330250.0514
        43.600          27.500
 131477683.36945 102450098.12342  25019351.1234   25019342.6994
        34.100          15.600
 116872298.49747  91069310.57144  22240045.3774   22240035.1944
        45.700          27.300
 114294068.70947  89060340.37045  21749413.9814   21749404.7364
        45.700          32.100
 111572238.09848  86939386.28045  21231484.3524   21231474.3454
        50.200          35.100
 09  5 11  2 11 30.0000000  0 11G25G 8G 6G 7G19G28G23G16G11G 3G13
 107831116.85748  84024227.61846  20519567.0574   20519556.9914
        48.500          40.200
 126973082.55246  98940028.58143  24162166.2154   24162159.9014
        41.400          23.600
 123497411.67247  96231765.43944  23500758.7694   23500749.9344
        43.500          27.800
 110781163.11747  86322952.95746  21080943.6084   21080933.6604
        47.800          39.200
 107830016.21048  84023409.53546  20519342.4394   20519331.0844
        50.400          40.600
 131603216.50645 102547907.58642  25043254.2334   25043248.1524
        35.500          14.800
 117442171.19747  91513355.02644  22348494.1874   22348482.5984
        42.200          26.400
 131537001.15845 102496319.75642  25030638.5254   25030629.9834
        34.500          16.900
 116782928.31547  90999671.49344  22223039.0754   22223028.4234
        45.700          28.000
 114380812.27247  89127932.76145  21765921.2544   21765912.0684
        46.300          31.500
 111622776.29248  86978766.69045  21241101.5244   21241091.6344
        51.600          34.900
